[{"id":"5","name":"Fili\u0101le \u201e\u0100genskalns\u201d","city":"R\u012bga","address":"M\u0101rupes iela 2","description":"Darba laiks: \r\nI-V 9:00 \u2013 19:00\r\n\r\nT\u0101lrunis:1880","countryId":"1","markerTypeId":"5","lat":"56.9350394646","lng":"24.0711616442","zoom":"17","guid":"","country":{"id":"1","name":"Latvia"},"accessHours":[],"available":1},{"id":"6","name":"Fili\u0101le \"Bergs\"","city":"R\u012bga","address":"Elizabetes iela 87","description":"Darba laiks: \r\nI-V 9:00 \u2013 18:00\r\n\r\nT\u0101lrunis:1880","countryId":"1","markerTypeId":"5","lat":"56.9496557688","lng":"24.1222715423","zoom":"18","guid":"","country":{"id":"1","name":"Latvia"},"accessHours":[],"available":1},{"id":"7","name":"Fili\u0101le \u201eBolder\u0101ja\u201d","city":"R\u012bga","address":"Gobas iela 17","description":"Darba laiks:\r\nI-V 9:00 \u2013 17:00\r\n\r\nT\u0101lrunis: 1880","countryId":"1","markerTypeId":"5","lat":"57.0333739182","lng":"24.0487270073","zoom":"18","guid":"","country":{"id":"1","name":"Latvia"},"accessHours":[],"available":1},{"id":"8","name":"Fili\u0101le \u201eBr\u012bv\u012bbas\u201d","city":"R\u012bga","address":"Br\u012bv\u012bbas iela 52","description":"Darba laiks: \r\nI-V 9:00 \u2013 19:00\r\n\r\nT\u0101lrunis: 1880","countryId":"1","markerTypeId":"5","lat":"56.9556695316","lng":"24.1202997030","zoom":"18","guid":"","country":{"id":"1","name":"Latvia"},"accessHours":[],"available":1},{"id":"9","name":"Fili\u0101le \u201eDaile\u201d","city":"R\u012bga","address":"Br\u012bv\u012bbas iela 92\/94","description":"Darba laiks: \r\nI-V 09:00 \u2013 18:00\r\npusdienu p\u0101rtraukums: 14:00 \u2013 15:00\r\n\r\nT\u0101lrunis: 1880","countryId":"1","markerTypeId":"5","lat":"56.9600200000","lng":"24.1297370000","zoom":"17","guid":"","country":{"id":"1","name":"Latvia"},"accessHours":[],"available":1},{"id":"10","name":"Fili\u0101le \u201eElizabetes\u201d","city":"R\u012bga","address":"Elizabetes iela 33","description":"Darba laiks: \r\nI-V 9:00 \u2013 19:00\r\n\r\nT\u0101lrunis: 1880","countryId":"1","markerTypeId":"5","lat":"56.9579880493","lng":"24.1109656442","zoom":"17","guid":"","country":{"id":"1","name":"Latvia"},"accessHours":[],"available":1},{"id":"11","name":"Fili\u0101le \u201eJugla\u201d","city":"R\u012bga","address":"Br\u012bv\u012bbas gatve 432","description":"Darba laiks: \r\nI-V 09:00 \u2013 18:00\r\npusdienu p\u0101rtraukums: \r\n14:00 - 15:00\r\n\r\nT\u0101lrunis: 1880","countryId":"1","markerTypeId":"5","lat":"56.9892178652","lng":"24.2416529656","zoom":"17","guid":"","country":{"id":"1","name":"Latvia"},"accessHours":[],"available":1},{"id":"12","name":"Fili\u0101le \u201eLielirbes\u201d","city":"R\u012bga","address":"Lielirbes iela 17a","description":"Biroju centrs \"Panorama Plaza\"\r\nDarba laiks:\r\nI-V 10:00 \u2013 18:00\r\n\r\nT\u0101lrunis: 1880","countryId":"1","markerTypeId":"5","lat":"56.9332212081","lng":"24.0409972275","zoom":"16","guid":"","country":{"id":"1","name":"Latvia"},"accessHours":[],"available":1},{"id":"13","name":"Fili\u0101le \u201eMat\u012bsa\u201d","city":"R\u012bga","address":"Mat\u012bsa iela 26","description":"Darba laiks: \r\nI-V 9:00 \u2013 19:00\r\n\r\nT\u0101lrunis: 1880","countryId":"1","markerTypeId":"5","lat":"56.9567892482","lng":"24.1335991693","zoom":"17","guid":"","country":{"id":"1","name":"Latvia"},"accessHours":[],"available":1},{"id":"14","name":"Fili\u0101le \u201ePurvciems\u201d","city":"R\u012bga","address":"N\u012bcgales iela 2b","description":"Darba laiks: \r\nI-V 9:00 \u2013 19:00\r\n\r\nT\u0101lrunis: 1880","countryId":"1","markerTypeId":"5","lat":"56.9590949955","lng":"24.1765049643","zoom":"17","guid":"","country":{"id":"1","name":"Latvia"},"accessHours":[],"available":1},{"id":"15","name":"Fili\u0101le \u201eVecr\u012bga\u201d","city":"R\u012bga","address":"Gr\u0113cinieku iela 11a","description":"Darba laiks: \r\nI-V 9:00 \u2013 18:00\r\n\r\nT\u0101lrunis: 1880","countryId":"1","markerTypeId":"5","lat":"56.9470970332","lng":"24.1091499167","zoom":"18","guid":"","country":{"id":"1","name":"Latvia"},"accessHours":[],"available":1},{"id":"16","name":"Fili\u0101le \u201eSarkandaugava\u201d","city":"R\u012bga","address":"Tilta iela 2\/4","description":"Darba laiks:\r\nI-V 9:00 \u2013 18:00\r\nPusdienu p\u0101rtraukums: \r\n14:00 \u2013 15:00\r\n\r\nT\u0101lrunis: 1880","countryId":"1","markerTypeId":"5","lat":"56.9933132735","lng":"24.1237285483","zoom":"18","guid":"","country":{"id":"1","name":"Latvia"},"accessHours":[],"available":1},{"id":"17","name":"Fili\u0101le \u201eSkanstes\u201d un \u201ePrivate Banking centrs\u201d","city":"R\u012bga","address":"Skanstes iela 12","description":"DNB centr\u0101l\u0101s administr\u0101cijas \u0113ka\r\n\r\nDarba laiks: I-V 9:00 \u2013 18:00\r\n\r\nT\u0101lrunis: 1880","countryId":"1","markerTypeId":"5","lat":"56.9696780000","lng":"24.1191780000","zoom":"15","guid":"","country":{"id":"1","name":"Latvia"},"accessHours":[],"available":1},{"id":"18","name":"Fili\u0101le \u201eTeika\u201d","city":"R\u012bga","address":"Br\u012bv\u012bbas gatve 314","description":"Darba laiks: \r\nI-V 09:00 \u2013 18:00\r\nPusdienu p\u0101rtraukums: \r\n14:00 \u2013 15:00\r\n\r\nT\u0101lrunis: 1880","countryId":"1","markerTypeId":"5","lat":"56.9791289173","lng":"24.1865690602","zoom":"18","guid":"","country":{"id":"1","name":"Latvia"},"accessHours":[],"available":1},{"id":"19","name":"Fili\u0101le \u201eHipotek\u0101r\u0101s kredit\u0113\u0161anas centrs\u201d","city":"R\u012bga","address":"Kr. Valdem\u0101ra iela 57\/59","description":"Darba laiks: \r\nI-V 9:00 \u2013 18:00\r\n\r\nT\u0101lrunis: 1880","countryId":"1","markerTypeId":"5","lat":"56.9601920220","lng":"24.1201244140","zoom":"17","guid":"","country":{"id":"1","name":"Latvia"},"accessHours":[],"available":1},{"id":"20","name":"C\u0113su fili\u0101le","city":"C\u0113sis","address":"Vien\u012bbas laukums 2","description":"Darba laiks: \r\nI-V 9:00 \u2013 17:00\r\n\r\nT\u0101lrunis: 1880","countryId":"1","markerTypeId":"5","lat":"57.3141216726","lng":"25.2757192394","zoom":"18","guid":"","country":{"id":"1","name":"Latvia"},"accessHours":[],"available":1},{"id":"21","name":"Daugavpils fili\u0101le","city":"Daugavpils","address":"Cietok\u0161\u0146a iela 48","description":"Darba laiks: \r\nI-V 9:00 \u2013 18:00\r\n\r\nT\u0101lrunis: 1880","countryId":"1","markerTypeId":"5","lat":"55.8718204555","lng":"26.5193515595","zoom":"19","guid":"","country":{"id":"1","name":"Latvia"},"accessHours":[],"available":1},{"id":"22","name":"J\u0113kabpils fili\u0101le","city":"J\u0113kabpils","address":"Br\u012bv\u012bbas iela 146","description":"Darba laiks: \r\nI-V 9:00 \u2013 17:00\r\n\r\nT\u0101lrunis: 1880","countryId":"1","markerTypeId":"5","lat":"56.4982685017","lng":"25.8660589815","zoom":"16","guid":"","country":{"id":"1","name":"Latvia"},"accessHours":[],"available":1},{"id":"23","name":"Jelgavas fili\u0101le","city":"Jelgava","address":"Kato\u013cu iela 1","description":"Darba laiks: \r\nI-V 9:00 \u2013 18:00\r\n\r\nT\u0101lrunis: 1880","countryId":"1","markerTypeId":"5","lat":"56.6512640815","lng":"23.7252854418","zoom":"17","guid":"","country":{"id":"1","name":"Latvia"},"accessHours":[],"available":1},{"id":"24","name":"J\u016brmalas fili\u0101le","city":"J\u016brmala","address":"Str\u0113lnieku prospekts 16","description":"Darba laiks: \r\nI-V 9:00 \u2013 17:00\r\n\r\nT\u0101lrunis: 1880","countryId":"1","markerTypeId":"5","lat":"56.9668118622","lng":"23.7685734735","zoom":"18","guid":"","country":{"id":"1","name":"Latvia"},"accessHours":[],"available":1},{"id":"25","name":"Kuld\u012bgas fili\u0101le","city":"Kuld\u012bga","address":"Liep\u0101jas iela 28","description":"Darba laiks: \r\nI-V 9:00 \u2013 17:00\r\n\r\nT\u0101lrunis: 1880","countryId":"1","markerTypeId":"5","lat":"56.9683977585","lng":"21.9641748810","zoom":"17","guid":"","country":{"id":"1","name":"Latvia"},"accessHours":[],"available":1},{"id":"26","name":"Liep\u0101jas fili\u0101le","city":"Liep\u0101ja","address":"Radio iela 16","description":"Darba laiks: \r\nI-V 9:00 \u2013 18:00\r\n\r\nT\u0101lrunis: 1880","countryId":"1","markerTypeId":"5","lat":"56.5105253600","lng":"21.0111678294","zoom":"17","guid":"","country":{"id":"1","name":"Latvia"},"accessHours":[],"available":1},{"id":"27","name":"Limba\u017eu fili\u0101le","city":"Limba\u017ei","address":"R\u012bgas iela 7","description":"Darba laiks: \r\nI-V 9:00 \u2013 17:00\r\n\r\nT\u0101lrunis: 1880","countryId":"1","markerTypeId":"5","lat":"57.5119995088","lng":"24.7158728307","zoom":"17","guid":"","country":{"id":"1","name":"Latvia"},"accessHours":[],"available":1},{"id":"28","name":"Ogres fili\u0101le","city":"Ogre","address":"Br\u012bv\u012bbas iela 12a","description":"Darba laiks: \r\nI-V 9:00 \u2013 17:00\r\n\r\nPusdienu p\u0101rtraukums: 13:00 \u2013 14:00\r\n\r\nT\u0101lrunis: 1880","countryId":"1","markerTypeId":"5","lat":"56.8151482146","lng":"24.6027348492","zoom":"18","guid":"","country":{"id":"1","name":"Latvia"},"accessHours":[],"available":1},{"id":"29","name":"R\u0113zeknes fili\u0101le","city":"R\u0113zekne","address":"Br\u0101\u013cu Skrindu iela 9","description":"Darba laiks: \r\nI-V 9:00 \u2013 17:00\r\n\r\nT\u0101lrunis: 1880","countryId":"1","markerTypeId":"5","lat":"56.5046740791","lng":"27.3305576025","zoom":"18","guid":"","country":{"id":"1","name":"Latvia"},"accessHours":[],"available":1},{"id":"30","name":"Salaspils fili\u0101le","city":"Salaspils","address":"R\u012bgas iela 30","description":"Darba laiks:\r\nI-V 9:00 \u2013 17:00\r\n\r\nPusdienu p\u0101rtraukums: \r\n13:00 \u2013 14:00\r\n\r\nT\u0101lrunis: 1880","countryId":"1","markerTypeId":"5","lat":"56.8581035536","lng":"24.3476452381","zoom":"18","guid":"","country":{"id":"1","name":"Latvia"},"accessHours":[],"available":1},{"id":"31","name":"Saldus fili\u0101le","city":"Saldus","address":"Stri\u0137u iela 10c","description":"Darba laiks: \r\nI-V 9:00 \u2013 17:00\r\n\r\nT\u0101lrunis: 1880","countryId":"1","markerTypeId":"5","lat":"56.6652301259","lng":"22.4953511448","zoom":"18","guid":"","country":{"id":"1","name":"Latvia"},"accessHours":[],"available":1},{"id":"32","name":"Siguldas fili\u0101le","city":"Sigulda","address":"Rai\u0146a iela 1","description":"Darba laiks:\r\nI-V 9:00 \u2013 17:00 \r\npusdienu p\u0101rtraukums 13:00 - 14:00\r\n\r\nT\u0101lrunis: 1880","countryId":"1","markerTypeId":"5","lat":"57.1540916832","lng":"24.8541240675","zoom":"17","guid":"","country":{"id":"1","name":"Latvia"},"accessHours":[],"available":1},{"id":"33","name":"Tukuma fili\u0101le","city":"Tukums","address":"Raudas iela 4","description":"Darba laiks: \r\nI-V 9:00 \u2013 17:00\r\n\r\nT\u0101lrunis: 1880","countryId":"1","markerTypeId":"5","lat":"56.9690927856","lng":"23.1561043228","zoom":"16","guid":"","country":{"id":"1","name":"Latvia"},"accessHours":[],"available":1},{"id":"34","name":"Valmieras fili\u0101le","city":"Valmiera","address":"R\u012bgas iela 13","description":"Darba laiks: \r\nI-V 9:00 \u2013 18:00\r\n\r\nT\u0101lrunis: 1880","countryId":"1","markerTypeId":"5","lat":"57.5381791045","lng":"25.4194868135","zoom":"18","guid":"","country":{"id":"1","name":"Latvia"},"accessHours":[],"available":1},{"id":"35","name":"Ventspils fili\u0101le","city":"Ventspils","address":"Liel\u0101 Dzirnavu iela 4","description":"Darba laiks: \r\nI-V 9:00 \u2013 17:30\r\n\r\nT\u0101lrunis: 1880","countryId":"1","markerTypeId":"5","lat":"57.3930948575","lng":"21.5623287030","zoom":"18","guid":"","country":{"id":"1","name":"Latvia"},"accessHours":[],"available":1},{"id":"37","name":"DNB bankom\u0101ts","city":"R\u012bga","address":"Anni\u0146mui\u017eas bulv\u0101ris 40a","description":"Imanta\r\nVeikals \"RIMI Anni\u0146mui\u017ea\"\r\nDarba laiks: \r\nI\u2013VII 8:00\u201322:00","countryId":"1","markerTypeId":"2","lat":"56.9604408408","lng":"24.0129669272","zoom":"17","guid":"","country":{"id":"1","name":"Latvia"},"accessHours":[],"available":1},{"id":"38","name":"DNB bankom\u0101ts","city":"R\u012bga","address":"Aud\u0113ju iela 16","description":"Vecr\u012bga\r\nTirdzniec\u012bbas centrs \"Galerija Centrs\" \r\nDarba laiks: \r\nI \u2013 VII 8:00 \u2013 22:00","countryId":"1","markerTypeId":"2","lat":"56.9481642585","lng":"24.1125105238","zoom":"17","guid":"","country":{"id":"1","name":"Latvia"},"accessHours":[],"available":1},{"id":"39","name":"DNB bankom\u0101ts","city":"R\u012bga","address":"Aud\u0113ju iela 20","description":"Vecr\u012bga\r\nAptieka\r\nDarba laiks: diennakts","countryId":"1","markerTypeId":"2","lat":"56.9477598515","lng":"24.1140062625","zoom":"18","guid":"","country":{"id":"1","name":"Latvia"},"accessHours":[],"available":1},{"id":"40","name":"DNB bankom\u0101ts","city":"R\u012bga","address":"Br\u012bv\u012bbas iela 52","description":"Centrs\r\nDNB bankas fili\u0101le\r\nDarba laiks: \r\nI-V 9:00 \u2013 19:00","countryId":"1","markerTypeId":"2","lat":"56.9557616737","lng":"24.1205250086","zoom":"18","guid":"","country":{"id":"1","name":"Latvia"},"accessHours":[],"available":1},{"id":"41","name":"DNB bankom\u0101ts","city":"R\u012bga","address":"Br\u012bv\u012bbas gatve 372","description":"Teika\r\nTirdz.parks \"Alfa\", pie \"C\" ieejas\r\nDarba laiks: \r\nI \u2013 VII 8:00 \u2013 23:00","countryId":"1","markerTypeId":"2","lat":"56.9829177163","lng":"24.2024553413","zoom":"17","guid":"","country":{"id":"1","name":"Latvia"},"accessHours":[],"available":1},{"id":"42","name":"DNB bankom\u0101ts","city":"R\u012bga","address":"Br\u012bv\u012bbas gatve 406","description":"Jugla\r\nVeikals \"Sils\"\r\nDarba laiks: diennakts","countryId":"1","markerTypeId":"2","lat":"56.9876055702","lng":"24.2286277130","zoom":"17","guid":"","country":{"id":"1","name":"Latvia"},"accessHours":[],"available":1},{"id":"43","name":"DNB bankom\u0101ts","city":"R\u012bga","address":"C\u0113su iela 3a","description":"Centrs\r\nUz\u0146\u0113mums \"R\u012bgas Siltums\"","countryId":"1","markerTypeId":"2","lat":"56.9655210266","lng":"24.1369205767","zoom":"15","guid":"","country":{"id":"1","name":"Latvia"},"accessHours":[],"available":1},{"id":"44","name":"DNB bankom\u0101ts","city":"R\u012bga","address":"A.Deglava iela 67","description":"Purvciems\r\nVeikals \"Maxima XXX\" \r\nDarba laiks: \r\nI \u2013 VII 8:00 \u2013 23:00","countryId":"1","markerTypeId":"2","lat":"56.9501716570","lng":"24.1872710847","zoom":"15","guid":"","country":{"id":"1","name":"Latvia"},"accessHours":[],"available":1},{"id":"46","name":"DNB bankom\u0101ts","city":"R\u012bga","address":"Dzelzavas iela 74","description":"Purvciems\r\nOfisu \u0113ka\r\nDarba laiks: diennakts","countryId":"1","markerTypeId":"2","lat":"56.9559780965","lng":"24.1923593029","zoom":"17","guid":"","country":{"id":"1","name":"Latvia"},"accessHours":[],"available":1},{"id":"47","name":"DNB bankom\u0101ts","city":"R\u012bga","address":"Dzirciema iela 42","description":"I\u013c\u0123uciems\r\nVeikals \"RIMI I\u013c\u0123uciems\"\r\nDarba laiks: \r\nI \u2013 VII 8:00 \u2013 22:00","countryId":"1","markerTypeId":"2","lat":"56.9594163883","lng":"24.0530397646","zoom":"16","guid":"","country":{"id":"1","name":"Latvia"},"accessHours":[],"available":1},{"id":"48","name":"DNB bankom\u0101ts","city":"R\u012bga","address":"Dzirnavu iela 84","description":"Centrs\r\nVeikals \"Zvaigznes gr\u0101matn\u012bca\"\r\nDarba laiks: diennakts","countryId":"1","markerTypeId":"2","lat":"56.9511462349","lng":"24.1233817116","zoom":"17","guid":"","country":{"id":"1","name":"Latvia"},"accessHours":[],"available":1},{"id":"49","name":"DNB bankom\u0101ts","city":"R\u012bga","address":"Elizabetes iela 24","description":"Centrs\r\nViesn\u012bca \"Tallink Hotel Riga\"\r\nDarba laiks: diennakts","countryId":"1","markerTypeId":"2","lat":"56.9484599424","lng":"24.1229395939","zoom":"17","guid":"","country":{"id":"1","name":"Latvia"},"accessHours":[],"available":1},{"id":"50","name":"DNB bankom\u0101ts","city":"R\u012bga","address":"Elizabetes iela 33","description":"Centrs\r\nDnB NORD Bankas fili\u0101le\r\nDarba laiks: diennakts","countryId":"1","markerTypeId":"2","lat":"56.9575307513","lng":"24.1119956124","zoom":"17","guid":"","country":{"id":"1","name":"Latvia"},"accessHours":[],"available":1},{"id":"51","name":"DNB bankom\u0101ts","city":"R\u012bga","address":"Elizabetes iela 65","description":"Centrs\r\nBistro \"Lido V\u0113rman\u012btis\"\r\nDarba laiks: \r\nI \u2013 VI 9:00 \u2013 22:00\r\nVII 10:00 \u2013 21:00\r\n                    ","countryId":"1","markerTypeId":"2","lat":"56.9527108057","lng":"24.1199001276","zoom":"18","guid":"","country":{"id":"1","name":"Latvia"},"accessHours":[],"available":1},{"id":"52","name":"DNB bankom\u0101ts","city":"R\u012bga","address":"Gobas iela 17","description":"Bolder\u0101ja\r\nDNB bankas fili\u0101le\r\nDarba laiks: diennakts","countryId":"1","markerTypeId":"2","lat":"57.0333797563","lng":"24.0487313717","zoom":"17","guid":"","country":{"id":"1","name":"Latvia"},"accessHours":[],"available":1},{"id":"53","name":"DNB bankom\u0101ts","city":"R\u012bga","address":"Gr\u0113cinieku iela 11a","description":"Vecr\u012bga\r\nDNB bankas fili\u0101le\r\nDarba laiks: diennakts","countryId":"1","markerTypeId":"2","lat":"56.9471028848","lng":"24.1091284590","zoom":"17","guid":"","country":{"id":"1","name":"Latvia"},"accessHours":[],"available":1},{"id":"54","name":"DNB bankom\u0101ts","city":"R\u012bga","address":"Gr\u0113cinieku iela 34","description":"Vecr\u012bga\r\n\"Vesel\u012bbas centrs 5\"\r\nDarba laiks: diennakts","countryId":"1","markerTypeId":"2","lat":"56.9462940000","lng":"24.1057860000","zoom":"15","guid":"","country":{"id":"1","name":"Latvia"},"accessHours":[],"available":1},{"id":"56","name":"DNB bankom\u0101ts","city":"R\u012bga","address":"Hipokr\u0101ta iela 7","description":"Me\u017eciems\r\nVeikals \"Beta\"\r\nDarba laiks: \r\nI \u2013 VII 8:00 \u2013 23:00","countryId":"1","markerTypeId":"2","lat":"56.9672006983","lng":"24.2399520661","zoom":"16","guid":"","country":{"id":"1","name":"Latvia"},"accessHours":[],"available":1},{"id":"57","name":"DNB bankom\u0101ts","city":"R\u012bga","address":"Ieri\u0137u iela 3","description":"Purvciems\r\nTirdz.centrs \"Domina Shopping\"\r\nDarba laiks: \r\nI \u2013 VII 8:00 \u2013 23:00","countryId":"1","markerTypeId":"2","lat":"56.9663542367","lng":"24.1633476137","zoom":"15","guid":"","country":{"id":"1","name":"Latvia"},"accessHours":[],"available":1},{"id":"58","name":"DNB bankom\u0101ts","city":"R\u012bga","address":"Ilukstes iela 24a","description":"P\u013cavnieki\r\nVeikals \"Maxima X\"\r\nDarba laiks: diennakts","countryId":"1","markerTypeId":"2","lat":"56.9416847069","lng":"24.1958414246","zoom":"17","guid":"","country":{"id":"1","name":"Latvia"},"accessHours":[],"available":1},{"id":"59","name":"DNB bankom\u0101ts","city":"R\u012bga","address":"Ka\u013c\u0137u iela 22","description":"Vecr\u012bga\r\n\"L\u012bvu krodzi\u0146\u0161\"\r\nDarba laiks: diennakts","countryId":"1","markerTypeId":"2","lat":"56.9495331155","lng":"24.1103882712","zoom":"18","guid":"","country":{"id":"1","name":"Latvia"},"accessHours":[],"available":1},{"id":"60","name":"DNB bankom\u0101ts","city":"R\u012bga","address":"Kleistu iela 9","description":"Imanta\r\nVeikals \"Iki Imanta\"\r\nDarba laiks: diennakts","countryId":"1","markerTypeId":"2","lat":"56.9622519044","lng":"24.0222010661","zoom":"17","guid":"","country":{"id":"1","name":"Latvia"},"accessHours":[],"available":1},{"id":"61","name":"DNB bankom\u0101ts","city":"R\u012bga","address":"Krasta iela 76","description":"Krasta ielas raj.\r\nAtp\u016btas centrs \"Lido\"\r\nDarba laiks: \r\nI \u2013 VII 10:00 \u2013 24:00","countryId":"1","markerTypeId":"2","lat":"56.9269667050","lng":"24.1601023373","zoom":"17","guid":"","country":{"id":"1","name":"Latvia"},"accessHours":[],"available":1},{"id":"62","name":"DNB bankom\u0101ts","city":"R\u012bga","address":"Kuld\u012bgas iela 1","description":"Dzirciems\r\nDUS \"Neste\" \r\nDarba laiks: diennakts","countryId":"1","markerTypeId":"2","lat":"56.9538808167","lng":"24.0690063545","zoom":"15","guid":"","country":{"id":"1","name":"Latvia"},"accessHours":[],"available":1},{"id":"63","name":"DNB bankom\u0101ts","city":"R\u012bga","address":"Kurbada iela 8","description":"Centrs\r\nDUS \"Statoil\" \r\nDarba laiks: diennakts","countryId":"1","markerTypeId":"2","lat":"56.9475241802","lng":"24.1368651177","zoom":"17","guid":"","country":{"id":"1","name":"Latvia"},"accessHours":[],"available":1},{"id":"64","name":"DNB bankom\u0101ts","city":"R\u012bga","address":"Kurzemes prospekts 1a","description":"Imanta\r\nTirdzniec\u012bbas centrs \"Damme\"\r\nDarba laiks: \r\nI \u2013 VII 9:00 \u2013 23:00","countryId":"1","markerTypeId":"2","lat":"56.9540288279","lng":"24.0379714127","zoom":"16","guid":"","country":{"id":"1","name":"Latvia"},"accessHours":[],"available":1},{"id":"65","name":"DNB bankom\u0101ts","city":"R\u012bga","address":"Kurzemes prospekts 132","description":"Imanta\r\nVeikals \"Mego\"\r\nDarba laiks: diennakts","countryId":"1","markerTypeId":"2","lat":"56.9621106437","lng":"24.0000572222","zoom":"17","guid":"","country":{"id":"1","name":"Latvia"},"accessHours":[],"available":1},{"id":"66","name":"DNB bankom\u0101ts","city":"R\u012bga","address":"Kurzemes prospekts 141","description":"Imanta\r\nVeikals \"Maxima XX\"\r\nDarba laiks: \r\nI \u2013 VI 8:00 \u2013 22:00\r\nVII 9:00 \u2013 22:00\r\n                    ","countryId":"1","markerTypeId":"2","lat":"56.9596771047","lng":"23.9969813889","zoom":"17","guid":"","country":{"id":"1","name":"Latvia"},"accessHours":[],"available":1},{"id":"67","name":"DNB bankom\u0101ts","city":"R\u012bga","address":"L\u0101\u010dpl\u0113\u0161a iela 41","description":"Centrs\r\nDNB bankas fili\u0101le\r\nDarba laiks: diennakts","countryId":"1","markerTypeId":"2","lat":"56.9529188812","lng":"24.1282694418","zoom":"17","guid":"","country":{"id":"1","name":"Latvia"},"accessHours":[],"available":1},{"id":"68","name":"DNB bankom\u0101ts","city":"R\u012bga","address":"Lielirbes iela 17a","description":"J\u016brmalas \u0161oseja\r\n\"Panorama Plaza\"\r\nDarba laiks: diennakts","countryId":"1","markerTypeId":"2","lat":"56.9331626698","lng":"24.0410616006","zoom":"16","guid":"","country":{"id":"1","name":"Latvia"},"accessHours":[],"available":1},{"id":"69","name":"DNB bankom\u0101ts","city":"R\u012bga","address":"Lielirbes iela 29","description":"J\u016brmalas \u0161oseja\r\nTirdzn.centrs \"Spice\", pie \"Rimi\" kas\u0113m\r\nDarba laiks: \r\nI \u2013 VII 9:00 \u2013 23:00","countryId":"1","markerTypeId":"2","lat":"56.9294040928","lng":"24.0377172778","zoom":"16","guid":"","country":{"id":"1","name":"Latvia"},"accessHours":[],"available":1},{"id":"70","name":"DNB bankom\u0101ts","city":"R\u012bga","address":"Lub\u0101nas iela 117a","description":"P\u013cavnieki\r\nTirdzniec\u012bbas centrs \"Sahara\"\r\nDarba laiks: diennakts","countryId":"1","markerTypeId":"2","lat":"56.9321887006","lng":"24.2002362209","zoom":"17","guid":"","country":{"id":"1","name":"Latvia"},"accessHours":[],"available":1},{"id":"71","name":"DNB bankom\u0101ts","city":"R\u012bga","address":"Maskavas iela 256a","description":"\u0136engarags\r\nVeikals \"Maxima X\"\r\nDarba laiks: diennakts","countryId":"1","markerTypeId":"2","lat":"56.9121562871","lng":"24.1768317778","zoom":"17","guid":"","country":{"id":"1","name":"Latvia"},"accessHours":[],"available":1},{"id":"72","name":"DNB bankom\u0101ts","city":"R\u012bga","address":"Maskavas iela 265","description":"\u0136engarags\r\nVeikals \"Maxima X\"\r\nDarba laiks: \r\nI \u2013 VII 8:00 \u2013 22:00","countryId":"1","markerTypeId":"2","lat":"56.9202396408","lng":"24.1725087990","zoom":"16","guid":"","country":{"id":"1","name":"Latvia"},"accessHours":[],"available":1},{"id":"73","name":"DNB bankom\u0101ts","city":"R\u012bga","address":"Mat\u012bsa iela 8","description":"Centrs\r\nVeikals \"Mego\"\r\nDarba laiks: diennakts","countryId":"1","markerTypeId":"2","lat":"56.9582900000","lng":"24.1307640000","zoom":"15","guid":"","country":{"id":"1","name":"Latvia"},"accessHours":[],"available":1},{"id":"74","name":"DNB bankom\u0101ts","city":"R\u012bga","address":"M\u016bkusalas iela 41","description":"M\u016bkusala\r\n\"European Trade Center\"\r\nDarba laiks: diennakts","countryId":"1","markerTypeId":"2","lat":"56.9358357241","lng":"24.1033299788","zoom":"17","guid":"","country":{"id":"1","name":"Latvia"},"accessHours":[],"available":1},{"id":"75","name":"DNB bankom\u0101ts","city":"R\u012bga","address":"M\u016bkusalas iela 71","description":"Bie\u0137ensala\r\nTirdzniec\u012bbas centrs \"R\u012bga Plaza\"\r\nDarba laiks: \r\nI \u2013 VI 10:00 \u2013 21:00\r\nVII 10:00 \u2013 20:00\r\n","countryId":"1","markerTypeId":"2","lat":"56.9263375614","lng":"24.1029191270","zoom":"15","guid":"","country":{"id":"1","name":"Latvia"},"accessHours":[],"available":1},{"id":"76","name":"DNB bankom\u0101ts","city":"R\u012bga","address":"M\u016bkusalas iela 73","description":"Bie\u0137ensala\r\nVeikals \"Maxima XX\"\r\nDarba laiks: \r\nI \u2013 VII 8:00 \u2013 23:00","countryId":"1","markerTypeId":"2","lat":"56.9230646504","lng":"24.1063453015","zoom":"15","guid":"","country":{"id":"1","name":"Latvia"},"accessHours":[],"available":1},{"id":"77","name":"DNB bankom\u0101ts","city":"R\u012bga","address":"M\u016bkusalas iela 101","description":"Ziepniekkalns\r\nOfisu \u0113ka\r\nDarba laiks: diennakts","countryId":"1","markerTypeId":"2","lat":"56.9150183666","lng":"24.1198670397","zoom":"16","guid":"","country":{"id":"1","name":"Latvia"},"accessHours":[],"available":1},{"id":"78","name":"DNB bankom\u0101ts","city":"R\u012bga","address":"N\u012bcgales iela 2","description":"Purvciems\r\nDNB bankas fili\u0101le\r\nDarba laiks: diennakts","countryId":"1","markerTypeId":"2","lat":"56.9590101738","lng":"24.1765381508","zoom":"18","guid":"","country":{"id":"1","name":"Latvia"},"accessHours":[],"available":1},{"id":"79","name":"DNB bankom\u0101ts","city":"R\u012bga","address":"N\u012bcgales iela 46a","description":"D\u0101rzciems\r\nVeikals \"Maxima XX\"\r\nDarba laiks: \r\nI \u2013 VII 8:00 \u2013 23:00","countryId":"1","markerTypeId":"2","lat":"56.9449305057","lng":"24.1717651376","zoom":"17","guid":"","country":{"id":"1","name":"Latvia"},"accessHours":[],"available":1},{"id":"80","name":"DNB bankom\u0101ts","city":"R\u012bga","address":"Nomet\u0146u iela 59b","description":"\u0100genskalns\r\nTirdzniec\u012bbas centrs \"\u0100genskalns\"\r\nDarba laiks: diennakts","countryId":"1","markerTypeId":"2","lat":"56.9358083830","lng":"24.0696485397","zoom":"17","guid":"","country":{"id":"1","name":"Latvia"},"accessHours":[],"available":1},{"id":"81","name":"DNB bankom\u0101ts","city":"R\u012bga","address":"Ozolciema iela 10\/1","description":"Ziepniekkalns\r\nVeikals \"Mego\"\r\nDarba laiks: diennakts","countryId":"1","markerTypeId":"2","lat":"56.8998689492","lng":"24.0846626547","zoom":"17","guid":"","country":{"id":"1","name":"Latvia"},"accessHours":[],"available":1},{"id":"82","name":"DNB bankom\u0101ts","city":"R\u012bga","address":"P\u0113rses iela 2","description":"Centrs\r\nOfisu \u0113ka\r\nDarba laiks: diennakts","countryId":"1","markerTypeId":"2","lat":"56.9521287433","lng":"24.1247295741","zoom":"17","guid":"","country":{"id":"1","name":"Latvia"},"accessHours":[],"available":1},{"id":"83","name":"DNB bankom\u0101ts","city":"R\u012bga","address":"Maz\u0101 Renc\u0113nu iela 1","description":"D\u0101rzciems\r\nTirdzniec\u012bbas centrs \"Galerija Azur\" \r\nDarba laiks: \r\nI \u2013 VII 9:00 \u2013 21:00","countryId":"1","markerTypeId":"2","lat":"56.9285152849","lng":"24.1806022754","zoom":"16","guid":"","country":{"id":"1","name":"Latvia"},"accessHours":[],"available":1},{"id":"84","name":"DNB bankom\u0101ts","city":"R\u012bga","address":"Ru\u0161onu iela 17a","description":"\u0136engarags\r\nVeikals \"Beta\"\r\nDarba laiks: diennakts","countryId":"1","markerTypeId":"2","lat":"56.9145808339","lng":"24.1841648981","zoom":"17","guid":"","country":{"id":"1","name":"Latvia"},"accessHours":[],"available":1},{"id":"85","name":"DNB bankom\u0101ts","city":"R\u012bga","address":"Salnas iela 1a","description":"P\u013cavnieki\r\nVeikals \"Supernetto\"\r\nDarba laiks: diennakts","countryId":"1","markerTypeId":"2","lat":"56.9437217578","lng":"24.2173940000","zoom":"17","guid":"","country":{"id":"1","name":"Latvia"},"accessHours":[],"available":1},{"id":"86","name":"DNB bankom\u0101ts","city":"R\u012bga","address":"Skolas iela 2","description":"Centrs\r\n\"Essential Club\"\r\nDarba laiks: diennakts","countryId":"1","markerTypeId":"2","lat":"56.9556698389","lng":"24.1155605595","zoom":"17","guid":"","country":{"id":"1","name":"Latvia"},"accessHours":[],"available":1},{"id":"87","name":"DNB bankom\u0101ts","city":"R\u012bga","address":"Slokas iela 115","description":"Imants\r\nVeikals \"Maxima XXX\" \r\nDarba laiks: \r\nI \u2013 VII 8:00 \u2013 22:00","countryId":"1","markerTypeId":"2","lat":"56.9607140774","lng":"24.0371095926","zoom":"15","guid":"","country":{"id":"1","name":"Latvia"},"accessHours":[],"available":1},{"id":"88","name":"DNB bankom\u0101ts","city":"R\u012bga","address":"A.Saharova iela 20a","description":"P\u013cavnieki\r\nVeikals \"Maxima XX\"\r\nDarba laiks: \r\nI \u2013 VII 8:00 \u2013 23:00","countryId":"1","markerTypeId":"2","lat":"56.9411571235","lng":"24.2063961905","zoom":"16","guid":"","country":{"id":"1","name":"Latvia"},"accessHours":[],"available":1},{"id":"89","name":"DNB bankom\u0101ts","city":"R\u012bga","address":"A.Saharova iela 21","description":"P\u013cavnieki\r\nTirdzniec\u012bbas centrs \"T\u0101lava\" \r\nDarba laiks: diennakts","countryId":"1","markerTypeId":"2","lat":"56.9381489428","lng":"24.2024979815","zoom":"17","guid":"","country":{"id":"1","name":"Latvia"},"accessHours":[],"available":1},{"id":"90","name":"DNB bankom\u0101ts","city":"R\u012bga","address":"Skanstes iela 12","description":"Skanstes ielas rajons\r\nDNB bankas centr\u0101l\u0101s administr\u0101cijas \u0113ka\r\nDarba laiks: diennakts","countryId":"1","markerTypeId":"2","lat":"56.9706019890","lng":"24.1188561349","zoom":"17","guid":"","country":{"id":"1","name":"Latvia"},"accessHours":[],"available":1},{"id":"91","name":"DNB bankom\u0101ts","city":"R\u012bga","address":"Smil\u0161u iela 6","description":"Vecr\u012bga\r\nDarba laiks: diennakts","countryId":"1","markerTypeId":"2","lat":"56.9504202785","lng":"24.1063055423","zoom":"17","guid":"","country":{"id":"1","name":"Latvia"},"accessHours":[],"available":1},{"id":"92","name":"DNB bankom\u0101ts","city":"R\u012bga","address":"Stabu iela 61","description":"Centrs\r\nVeikals \"Tirgus galerija\" \r\nDarba laiks: diennakts","countryId":"1","markerTypeId":"2","lat":"56.9532520189","lng":"24.1350854934","zoom":"17","guid":"","country":{"id":"1","name":"Latvia"},"accessHours":[],"available":1},{"id":"93","name":"DNB bankom\u0101ts","city":"R\u012bga","address":"Centr\u0101l\u0101 Stacija","description":"Centrs\r\nT.c.\"Origo\", starp \"RIMI\" kas\u0113m un \"Oran\u017ea\"\r\nDarba laiks:\r\nI \u2013 VII 7:00 \u2013 24:00","countryId":"1","markerTypeId":"2","lat":"56.9469321400","lng":"24.1209690357","zoom":"17","guid":"","country":{"id":"1","name":"Latvia"},"accessHours":[],"available":1},{"id":"94","name":"DNB bankom\u0101ts","city":"R\u012bga","address":"Stirnu iela 26","description":"Purvciems\r\nVeikals \"Rimi\" \r\nDarba laiks: \r\nI \u2013 VII 8:00 \u2013 23:00","countryId":"1","markerTypeId":"2","lat":"56.9583844304","lng":"24.1856122037","zoom":"16","guid":"","country":{"id":"1","name":"Latvia"},"accessHours":[],"available":1},{"id":"95","name":"DNB bankom\u0101ts","city":"R\u012bga","address":"Te\u0101tra iela 12","description":"Vecr\u012bga\r\nSp\u0113\u013cu autom\u0101tu z\u0101le\r\nDarba laiks: diennakts","countryId":"1","markerTypeId":"2","lat":"56.9488059364","lng":"24.1125394405","zoom":"19","guid":"","country":{"id":"1","name":"Latvia"},"accessHours":[],"available":1},{"id":"96","name":"DNB bankom\u0101ts","city":"R\u012bga","address":"Tilta iela 2\/4","description":"Sarkandaugava\r\nTilta iela 2\/4\r\nDarba laiks: diennakts","countryId":"1","markerTypeId":"2","lat":"56.9932285297","lng":"24.1237982857","zoom":"17","guid":"","country":{"id":"1","name":"Latvia"},"accessHours":[],"available":1},{"id":"97","name":"DNB bankom\u0101ts","city":"R\u012bga","address":"\u016anijas iela 52","description":"Purvciems\r\n\"\u0122imenes Aptieka\"\r\nDarba laiks: diennakts","countryId":"1","markerTypeId":"2","lat":"56.9642345752","lng":"24.1770314048","zoom":"16","guid":"","country":{"id":"1","name":"Latvia"},"accessHours":[],"available":1},{"id":"98","name":"DNB bankom\u0101ts","city":"R\u012bga","address":"Valde\u0137u iela 56","description":"Ziepniekkalns\r\nVeikals \"IKI Valde\u0137u\"\r\nDarba laiks: \r\nI \u2013 VII 8:00 \u2013 23:00","countryId":"1","markerTypeId":"2","lat":"56.9029573232","lng":"24.0946248836","zoom":"16","guid":"","country":{"id":"1","name":"Latvia"},"accessHours":[],"available":1},{"id":"99","name":"DNB bankom\u0101ts","city":"R\u012bga","address":"Kr.Valdem\u0101ra iela 57\/59","description":"Centrs\r\nDNB bankas fili\u0101le\r\nDarba laiks: diennakts","countryId":"1","markerTypeId":"2","lat":"56.9602095708","lng":"24.1199849391","zoom":"16","guid":"","country":{"id":"1","name":"Latvia"},"accessHours":[],"available":1},{"id":"100","name":"DNB bankom\u0101ts","city":"R\u012bga","address":"Va\u013c\u0146u iela 2","description":"Vecr\u012bga\r\nSalons \"T\u012bne\"\r\nDarba laiks: diennakts","countryId":"1","markerTypeId":"2","lat":"56.9511493818","lng":"24.1090787116","zoom":"17","guid":"","country":{"id":"1","name":"Latvia"},"accessHours":[],"available":1},{"id":"101","name":"DNB bankom\u0101ts","city":"R\u012bga","address":"Zolit\u016bdes iela 34","description":"Zolit\u016bde\r\nVeikals \"RIMI Zolit\u016bde\"\r\nDarba laiks: diennakts","countryId":"1","markerTypeId":"2","lat":"56.9492965405","lng":"23.9998373400","zoom":"17","guid":"","country":{"id":"1","name":"Latvia"},"accessHours":[],"available":1},{"id":"102","name":"DNB bankom\u0101ts","city":"Balvi","address":"Br\u012bv\u012bbas iela 57","description":"Veikals \"Elvi\"\r\nDarba laiks: veikala darba laik\u0101","countryId":"1","markerTypeId":"2","lat":"57.1328262849","lng":"27.2658826085","zoom":"16","guid":"","country":{"id":"1","name":"Latvia"},"accessHours":[],"available":1},{"id":"103","name":"DNB bankom\u0101ts","city":"C\u0113sis","address":"R\u012bgas iela 23","description":"Centrs\r\nDarba laiks: diennakts","countryId":"1","markerTypeId":"2","lat":"57.3113844038","lng":"25.2710865410","zoom":"17","guid":"","country":{"id":"1","name":"Latvia"},"accessHours":[],"available":1},{"id":"104","name":"DNB bankom\u0101ts","city":"C\u0113sis","address":"Vien\u012bbas laukums 2","description":"Centrs\r\nUnivers\u0101lveikals\r\nDarba laiks: diennakts","countryId":"1","markerTypeId":"2","lat":"57.3139594424","lng":"25.2755475780","zoom":"17","guid":"","country":{"id":"1","name":"Latvia"},"accessHours":[],"available":1},{"id":"105","name":"DNB bankom\u0101ts","city":"Daugavpils","address":"18.novembra iela 136","description":"Veikals \"RIMI Daugavpils\"\r\nDarba laiks: diennakts","countryId":"1","markerTypeId":"2","lat":"55.8771209256","lng":"26.5512092884","zoom":"16","guid":"","country":{"id":"1","name":"Latvia"},"accessHours":[],"available":1},{"id":"106","name":"DNB bankom\u0101ts","city":"Daugavpils","address":"Cietok\u0161\u0146a iela 48","description":"DNB bankas fili\u0101le\r\nDarba laiks: diennakts","countryId":"1","markerTypeId":"2","lat":"55.8717813296","lng":"26.5193183730","zoom":"17","guid":"","country":{"id":"1","name":"Latvia"},"accessHours":[],"available":1},{"id":"107","name":"DNB bankom\u0101ts","city":"Daugavpils","address":"Cietok\u0161\u0146a iela 60","description":"Veikals \"Maxima XX\"\r\nDarba laiks: \r\nI \u2013 VII 8:00 \u2013 24:00","countryId":"1","markerTypeId":"2","lat":"55.8751580676","lng":"26.5206213122","zoom":"17","guid":"","country":{"id":"1","name":"Latvia"},"accessHours":[],"available":1},{"id":"108","name":"DNB bankom\u0101ts","city":"Daugavpils","address":"Cietok\u0161\u0146a iela 60","description":"\"Ditton Nams\"\r\nDarba laiks:\r\nI \u2013 V 9:00 \u2013 19:00\r\nVI 8:00 - 17:00\r\nVII 8:00 \u2013 16:00\r\n","countryId":"1","markerTypeId":"2","lat":"55.8730032576","lng":"26.5183253413","zoom":"17","guid":"","country":{"id":"1","name":"Latvia"},"accessHours":[],"available":1},{"id":"109","name":"DNB bankom\u0101ts","city":"Daugavpils","address":"Cietok\u0161\u0146a iela 70","description":"Veikals \"Rimi Cietoksnis\"\r\nDarba laiks: \r\nI - VII 8:00 \u2013 22:00","countryId":"1","markerTypeId":"2","lat":"55.8779275178","lng":"26.5135621349","zoom":"16","guid":"","country":{"id":"1","name":"Latvia"},"accessHours":[],"available":1},{"id":"110","name":"DNB bankom\u0101ts","city":"Daugavpils","address":"Raipoles iela 11a","description":"Jaun\u0101 For\u0161tate\r\nVeikals \"Iki Raipoles\"\r\nDarba laiks: \r\nI - VII 8:00 \u2013 22:00","countryId":"1","markerTypeId":"2","lat":"55.9003493643","lng":"26.5264192143","zoom":"17","guid":"","country":{"id":"1","name":"Latvia"},"accessHours":[],"available":1},{"id":"111","name":"DNB bankom\u0101ts","city":"Daugavpils","address":"Viestura iela 10","description":"Centrs\r\n\"Alejas aptieka\"\r\nDarba laiks: \r\nI - VII 8:00 \u2013 24:00","countryId":"1","markerTypeId":"2","lat":"55.8711627602","lng":"26.5249055595","zoom":"17","guid":"","country":{"id":"1","name":"Latvia"},"accessHours":[],"available":1},{"id":"112","name":"DNB bankom\u0101ts","city":"Durbe","address":"Rai\u0146a iela 49","description":"Veikals \"Lindale\"\r\nDarba laiks: diennakts","countryId":"1","markerTypeId":"2","lat":"56.5880438291","lng":"21.3732503109","zoom":"17","guid":"","country":{"id":"1","name":"Latvia"},"accessHours":[],"available":1},{"id":"113","name":"DNB bankom\u0101ts","city":"Grobi\u0146a","address":"Liel\u0101 iela 29","description":"Veikals \"Tev\"\r\nDarba laiks: \r\nI - VII 7:30 \u2013 22:00","countryId":"1","markerTypeId":"2","lat":"56.5353912950","lng":"21.1650398795","zoom":"15","guid":"","country":{"id":"1","name":"Latvia"},"accessHours":[],"available":1},{"id":"114","name":"DNB bankom\u0101ts","city":"J\u0113kabpils","address":"Vien\u012bbas iela 1a","description":"Veikals \"Mego\"\r\nDarba laiks: diennakts","countryId":"1","markerTypeId":"2","lat":"56.4936776190","lng":"25.8747436455","zoom":"15","guid":"","country":{"id":"1","name":"Latvia"},"accessHours":[],"available":1},{"id":"115","name":"DNB bankom\u0101ts","city":"Jelgava","address":"Dobeles \u0161oseja 7","description":"Veikals \"IKI\"\r\nDarba laiks: \r\nI \u2013 V 7:00 \u2013 23:00\r\nVI - VII 8:00 - 22:00\r\n","countryId":"1","markerTypeId":"2","lat":"56.6508933622","lng":"23.7069224934","zoom":"17","guid":"","country":{"id":"1","name":"Latvia"},"accessHours":[],"available":1},{"id":"116","name":"DNB bankom\u0101ts","city":"Jelgava","address":"Kato\u013cu iela 1","description":"DNB bankas fili\u0101le\r\nDarba laiks: diennakts\r\n","countryId":"1","markerTypeId":"2","lat":"56.6512876735","lng":"23.7252425265","zoom":"17","guid":"","country":{"id":"1","name":"Latvia"},"accessHours":[],"available":1},{"id":"117","name":"DNB bankom\u0101ts","city":"Jelgava","address":"R\u012bgas iela 11a","description":"Valdeka\r\nVeikals \"Maxima XX\"\r\nDarba laiks: \r\nI - VII 8:00 \u2013 24:00","countryId":"1","markerTypeId":"2","lat":"56.6612803555","lng":"23.7473421323","zoom":"17","guid":"","country":{"id":"1","name":"Latvia"},"accessHours":[],"available":1},{"id":"118","name":"DNB bankom\u0101ts","city":"Jelgava","address":"R\u012bgas iela 57a","description":"Veikals \"IKI\"\r\nDarba laiks: diennakts","countryId":"1","markerTypeId":"2","lat":"56.6697345553","lng":"23.7610915251","zoom":"17","guid":"","country":{"id":"1","name":"Latvia"},"accessHours":[],"available":1},{"id":"119","name":"DNB bankom\u0101ts","city":"Jelgava","address":"R\u016bpniec\u012bbas iela 77a","description":"\u0122intermui\u017ea\r\nVeikals \"Elvi\"\r\nDarba laiks: diennakts\r\n","countryId":"1","markerTypeId":"2","lat":"56.6368283750","lng":"23.7054997646","zoom":"16","guid":"","country":{"id":"1","name":"Latvia"},"accessHours":[],"available":1},{"id":"120","name":"DNB bankom\u0101ts","city":"Jelgava","address":"Satiksmes iela 35","description":"Veikals \"Supernetto\"\r\nDarba laiks: diennakts","countryId":"1","markerTypeId":"2","lat":"56.6564891495","lng":"23.6994516931","zoom":"16","guid":"","country":{"id":"1","name":"Latvia"},"accessHours":[],"available":1},{"id":"121","name":"DNB bankom\u0101ts","city":"Jelgava","address":"Stacijas iela 1","description":"Jelgavas dzelzce\u013ca stacija\r\nDarba laiks: diennakts","countryId":"1","markerTypeId":"2","lat":"56.6406394235","lng":"23.7319998836","zoom":"16","guid":"","country":{"id":"1","name":"Latvia"},"accessHours":[],"available":1},{"id":"122","name":"DNB bankom\u0101ts","city":"J\u016brmala","address":"Artil\u0113rijas iela 2","description":"Sloka\r\nVeikals \"Iki Sloka\"\r\nDarba laiks: diennakts","countryId":"1","markerTypeId":"2","lat":"56.9477177902","lng":"23.6179229669","zoom":"17","guid":"","country":{"id":"1","name":"Latvia"},"accessHours":[],"available":1},{"id":"123","name":"DNB bankom\u0101ts","city":"J\u016brmala","address":"Jomas iela 36","description":"Majori\r\nVeikals \"Drogas\" \r\nDarba laiks: diennakts","countryId":"1","markerTypeId":"2","lat":"56.9724729043","lng":"23.7981774061","zoom":"18","guid":"","country":{"id":"1","name":"Latvia"},"accessHours":[],"available":1},{"id":"124","name":"DNB bankom\u0101ts","city":"J\u016brmala","address":"Talsu \u0161oseja 29","description":"Kauguri\r\nTirdzniec\u012bbas centrs \"Rimi Kauguri\"\r\nDarba laiks: \r\nI \u2013 VII 8:00 \u2013 23:00","countryId":"1","markerTypeId":"2","lat":"56.9609140950","lng":"23.6155788360","zoom":"15","guid":"","country":{"id":"1","name":"Latvia"},"accessHours":[],"available":1},{"id":"125","name":"DNB bankom\u0101ts","city":"Kuld\u012bga","address":"Cepur\u012b\u0161u iela 5","description":"Veikals \"Domo\"\r\nDarba laiks: diennakts","countryId":"1","markerTypeId":"2","lat":"56.9574588378","lng":"21.9909351111","zoom":"15","guid":"","country":{"id":"1","name":"Latvia"},"accessHours":[],"available":1},{"id":"126","name":"DNB bankom\u0101ts","city":"Kuld\u012bga","address":"Liep\u0101jas iela 8","description":"Kafejn\u012bca \"Staburadze\"\r\nDarba laiks: diennakts","countryId":"1","markerTypeId":"2","lat":"56.9682949859","lng":"21.9686485509","zoom":"18","guid":"","country":{"id":"1","name":"Latvia"},"accessHours":[],"available":1},{"id":"127","name":"DNB bankom\u0101ts","city":"Kuld\u012bga","address":"S\u016bru iela 2","description":"Veikals \"RIMI Kuld\u012bga\"\r\nDarba laiks: \r\nI \u2013 VII 8:00 \u2013 22:00","countryId":"1","markerTypeId":"2","lat":"56.9668721595","lng":"21.9584265132","zoom":"15","guid":"","country":{"id":"1","name":"Latvia"},"accessHours":[],"available":1},{"id":"128","name":"DNB bankom\u0101ts","city":"Liep\u0101ja","address":"Atmodas bulv\u0101ris 8","description":"Karosta\r\nVeikals \"Zeme\u013cmols\" \r\nDarba laiks: I \u2013 VII 8:00 \u2013 22:00","countryId":"1","markerTypeId":"2","lat":"56.5544098395","lng":"21.0077177804","zoom":"17","guid":"","country":{"id":"1","name":"Latvia"},"accessHours":[],"available":1},{"id":"129","name":"DNB bankom\u0101ts","city":"Liep\u0101ja","address":"Gan\u012bbu iela 187","description":"Ezerkrasts\r\nVeikals \"Iki R\u0101mava\"\r\nDarba laiks: \r\nI - VII 8:00 \u2013 22:00","countryId":"1","markerTypeId":"2","lat":"56.4841833307","lng":"21.0160886111","zoom":"16","guid":"","country":{"id":"1","name":"Latvia"},"accessHours":[],"available":1},{"id":"130","name":"DNB bankom\u0101ts","city":"Liep\u0101ja","address":"Jaun\u0101 Ostmala 3\/5","description":"Jaunliep\u0101ja\r\nTirdz.centrs \"Rietumu centrs\"\r\nDarba laiks: \r\nI \u2013 VII 9:00 \u2013 23:00","countryId":"1","markerTypeId":"2","lat":"56.5147541737","lng":"21.0175836164","zoom":"16","guid":"","country":{"id":"1","name":"Latvia"},"accessHours":[],"available":1},{"id":"131","name":"DNB bankom\u0101ts","city":"Liep\u0101ja","address":"O.Kalpaka iela 86","description":"Zieme\u013cu priek\u0161pils\u0113ta\r\nVeikals \"Beta\" \r\nDarba laiks: diennakts","countryId":"1","markerTypeId":"2","lat":"56.5364706993","lng":"21.0025326614","zoom":"15","guid":"","country":{"id":"1","name":"Latvia"},"accessHours":[],"available":1},{"id":"132","name":"DNB bankom\u0101ts","city":"Liep\u0101ja","address":"Klaip\u0113das iela 62","description":"Dienvidrietumu priek\u0161pils\u0113ta\r\nVeikals \"XL Sala\"\r\nDarba laiks: diennakts","countryId":"1","markerTypeId":"2","lat":"56.4913523928","lng":"21.0038009372","zoom":"17","guid":"","country":{"id":"1","name":"Latvia"},"accessHours":[],"available":1},{"id":"133","name":"DNB bankom\u0101ts","city":"Liep\u0101ja","address":"Klaip\u0113das iela 62","description":"Dienvidrietumu priek\u0161pils\u0113ta\r\nVeikals \"XL Sala\" \r\nDarba laiks: \r\nI \u2013 VII 8:00 \u2013 24:00","countryId":"1","markerTypeId":"2","lat":"56.4917551541","lng":"21.0040852513","zoom":"17","guid":"","country":{"id":"1","name":"Latvia"},"accessHours":[],"available":1},{"id":"134","name":"DNB bankom\u0101ts","city":"Liep\u0101ja","address":"Liel\u0101 iela 13","description":"Vecliep\u0101ja\r\nTirdzniec\u012bbas nams \"Kurzeme\"\r\nDarba laiks: diennakts","countryId":"1","markerTypeId":"2","lat":"56.5076383636","lng":"21.0105661190","zoom":"17","guid":"","country":{"id":"1","name":"Latvia"},"accessHours":[],"available":1},{"id":"135","name":"DNB bankom\u0101ts","city":"Liep\u0101ja","address":"Radio iela 16","description":"Vecliep\u0101ja\r\nDNB bankas fili\u0101le\r\nDarba laiks: diennakts","countryId":"1","markerTypeId":"2","lat":"56.5104395199","lng":"21.0114263214","zoom":"18","guid":"","country":{"id":"1","name":"Latvia"},"accessHours":[],"available":1},{"id":"136","name":"DNB bankom\u0101ts","city":"Liep\u0101ja","address":"Raina iela 35","description":"Jaunliep\u0101ja\r\nVeikals \"J\u016bsu Auto\"\r\nDarba laiks: diennakts","countryId":"1","markerTypeId":"2","lat":"56.5181465684","lng":"21.0097616600","zoom":"17","guid":"","country":{"id":"1","name":"Latvia"},"accessHours":[],"available":1},{"id":"137","name":"DNB bankom\u0101ts","city":"Liep\u0101ja","address":"R\u012bgas iela 71","description":"Liep\u0101jas dzelzce\u013ca stacija\r\nDarba laiks: \r\ndzelzce\u013ca stacijas darba laik\u0101","countryId":"1","markerTypeId":"2","lat":"56.5240907310","lng":"21.0170338122","zoom":"17","guid":"","country":{"id":"1","name":"Latvia"},"accessHours":[],"available":1},{"id":"138","name":"DNB bankom\u0101ts","city":"Liep\u0101ja","address":"Tirgo\u0146u iela 20","description":"Vecliep\u0101ja\r\nLombards \"Moda Kapit\u0101ls\"\r\nDarba laiks: diennakts","countryId":"1","markerTypeId":"2","lat":"56.5065889284","lng":"21.0090565165","zoom":"18","guid":"","country":{"id":"1","name":"Latvia"},"accessHours":[],"available":1},{"id":"139","name":"DNB bankom\u0101ts","city":"Liep\u0101ja","address":"K.Z\u0101les laukums 8","description":"Vecliep\u0101ja\r\nTirdz.centrs \"Ostmala\"\r\nDarba laiks:\r\nI \u2013 VII 8:00 \u2013 22:00","countryId":"1","markerTypeId":"2","lat":"56.5114337411","lng":"21.0175165238","zoom":"17","guid":"","country":{"id":"1","name":"Latvia"},"accessHours":[],"available":1},{"id":"140","name":"DNB bankom\u0101ts","city":"Limba\u017ei","address":"C\u0113su iela 23","description":"Veikals \"Supernetto\"\r\nDarba laiks: diennakts","countryId":"1","markerTypeId":"2","lat":"57.5130863010","lng":"24.7211241349","zoom":"16","guid":"","country":{"id":"1","name":"Latvia"},"accessHours":[],"available":1},{"id":"141","name":"DNB bankom\u0101ts","city":"Limba\u017ei","address":"R\u012bgas iela 7","description":"DNB bankas fili\u0101le\r\nDarba laiks: diennakts","countryId":"1","markerTypeId":"2","lat":"57.5120062715","lng":"24.7158450086","zoom":"18","guid":"","country":{"id":"1","name":"Latvia"},"accessHours":[],"available":1},{"id":"142","name":"DNB bankom\u0101ts","city":"Madona","address":"R\u016bpniec\u012bbas iela 49","description":"Veikals \"Maxima\"\r\nDarba laiks: veikala darba laik\u0101","countryId":"1","markerTypeId":"2","lat":"56.8589713421","lng":"26.2318140384","zoom":"16","guid":"","country":{"id":"1","name":"Latvia"},"accessHours":[],"available":1},{"id":"143","name":"DNB bankom\u0101ts","city":"Ogre","address":"Br\u012bv\u012bbas iela 12a","description":"DNB bankas fili\u0101le\r\nDarba laiks: diennakts\r\n","countryId":"1","markerTypeId":"2","lat":"56.8148614687","lng":"24.6022842381","zoom":"16","guid":"","country":{"id":"1","name":"Latvia"},"accessHours":[],"available":1},{"id":"144","name":"DNB bankom\u0101ts","city":"P\u0101vilosta","address":"Dzintaru iela 2","description":"T\u016brisma un infiorm\u0101cijas centrs\r\nDarba laiks: diennakts","countryId":"1","markerTypeId":"2","lat":"56.8883837647","lng":"21.1787973938","zoom":"15","guid":"","country":{"id":"1","name":"Latvia"},"accessHours":[],"available":1},{"id":"145","name":"DNB bankom\u0101ts","city":"P\u013cavi\u0146as","address":"Daugavas iela 72","description":"Veikals \"Antaris\"\r\nDarba laiks: diennakts","countryId":"1","markerTypeId":"2","lat":"56.6184341129","lng":"25.7398965465","zoom":"16","guid":"","country":{"id":"1","name":"Latvia"},"accessHours":[],"available":1},{"id":"146","name":"DNB bankom\u0101ts","city":"P\u016bre","address":"Abava","description":"Veikals \"Abava\"\r\nDarba laiks: diennakts","countryId":"1","markerTypeId":"2","lat":"57.0383566627","lng":"22.9116077143","zoom":"15","guid":"","country":{"id":"1","name":"Latvia"},"accessHours":[],"available":1},{"id":"147","name":"DNB bankom\u0101ts","city":"R\u0113zekne","address":"Atbr\u012bvo\u0161anas aleja 109","description":"Veikals \"TC Lira\"\r\nDarba laiks: diennakts","countryId":"1","markerTypeId":"2","lat":"56.5107770406","lng":"27.3329938466","zoom":"17","guid":"","country":{"id":"1","name":"Latvia"},"accessHours":[],"available":1},{"id":"148","name":"DNB bankom\u0101ts","city":"R\u0113zekne","address":"Pulkve\u017ea Brie\u017ea iela 26","description":"Veikals \"Maxima X\"\r\nDarba laiks: diennakts","countryId":"1","markerTypeId":"2","lat":"56.5060273470","lng":"27.3348044576","zoom":"16","guid":"","country":{"id":"1","name":"Latvia"},"accessHours":[],"available":1},{"id":"149","name":"DNB bankom\u0101ts","city":"R\u0113zekne","address":"Br\u0101\u013cu Skrindu iela 9","description":"DNB bankas fili\u0101le\r\nDarba laiks: diennakts","countryId":"1","markerTypeId":"2","lat":"56.5046681582","lng":"27.3305844246","zoom":"17","guid":"","country":{"id":"1","name":"Latvia"},"accessHours":[],"available":1},{"id":"150","name":"DNB bankom\u0101ts","city":"Salaspils","address":"R\u012bgas iela 30","description":"DNB bankas fili\u0101le\r\nDarba laiks: diennakts\r\n","countryId":"1","markerTypeId":"2","lat":"56.8580976880","lng":"24.3476227804","zoom":"18","guid":"","country":{"id":"1","name":"Latvia"},"accessHours":[],"available":1},{"id":"151","name":"DNB bankom\u0101ts","city":"Salaspils","address":"Skolas iela 9","description":"Veikals \"IKI Skolas\"\r\nDarba laiks: diennakts","countryId":"1","markerTypeId":"2","lat":"56.8548414016","lng":"24.3342795926","zoom":"17","guid":"","country":{"id":"1","name":"Latvia"},"accessHours":[],"available":1},{"id":"152","name":"DNB bankom\u0101ts","city":"Saldus","address":"Jelgavas iela 1","description":"Veikals \"RIMI Saldus\"\r\nDarba laiks: diennakts","countryId":"1","markerTypeId":"2","lat":"56.6664305932","lng":"22.4944404921","zoom":"16","guid":"","country":{"id":"1","name":"Latvia"},"accessHours":[],"available":1},{"id":"153","name":"DNB bankom\u0101ts","city":"Sigulda","address":"Rai\u0146a iela 1","description":"DNB bankas fili\u0101le\r\nDNB bankom\u0101ts\r\n","countryId":"1","markerTypeId":"2","lat":"57.1539753005","lng":"24.8537700159","zoom":"15","guid":"","country":{"id":"1","name":"Latvia"},"accessHours":[],"available":1},{"id":"154","name":"DNB bankom\u0101ts","city":"Talsi","address":"R\u012bgas iela 8","description":"Veikals \"Maxima\"\r\nDarba laiks: \r\nI - VII 8:00 \u2013 22:00","countryId":"1","markerTypeId":"2","lat":"57.2388220499","lng":"22.5837111032","zoom":"16","guid":"","country":{"id":"1","name":"Latvia"},"accessHours":[],"available":1},{"id":"156","name":"DNB bankom\u0101ts","city":"Valmiera","address":"G.Api\u0146a iela 10a","description":"Veikals \"Maxima X\"\r\nDarba laiks: \r\nI \u2013 VII 8:00 \u2013 24:00","countryId":"1","markerTypeId":"2","lat":"57.5416610963","lng":"25.4169622553","zoom":"17","guid":"","country":{"id":"1","name":"Latvia"},"accessHours":[],"available":1},{"id":"157","name":"DNB bankom\u0101ts","city":"Valmiera","address":"Mat\u012b\u0161u \u0161oseja 7","description":"Veikals \"Depo DIY\"\r\nDarba laiks: \r\nI \u2013 V 8:00 \u2013 20:00\r\nVI 8:00 - 19:00\r\nVII 9:00 \u2013 18:00\r\n","countryId":"1","markerTypeId":"2","lat":"57.5409890046","lng":"25.3996007884","zoom":"16","guid":"","country":{"id":"1","name":"Latvia"},"accessHours":[],"available":1},{"id":"158","name":"DNB bankom\u0101ts","city":"Valmiera","address":"R\u012bgas iela 4","description":"Tirdzniec\u012bbas centrs \"Valleta\"\r\nDarba laiks: diennakts","countryId":"1","markerTypeId":"2","lat":"57.5385185852","lng":"25.4235527506","zoom":"18","guid":"","country":{"id":"1","name":"Latvia"},"accessHours":[],"available":1},{"id":"159","name":"DNB bankom\u0101ts","city":"Valmiera","address":"R\u012bgas iela 13","description":"DNB bankas fili\u0101le\r\nDarba laiks: diennakts","countryId":"1","markerTypeId":"2","lat":"57.5382597243","lng":"25.4195029067","zoom":"18","guid":"","country":{"id":"1","name":"Latvia"},"accessHours":[],"available":1},{"id":"160","name":"DNB bankom\u0101ts","city":"Valmiera","address":"Rubenes iela 51","description":"Veikals \"Supernetto\"\r\nDarba laiks: diennakts","countryId":"1","markerTypeId":"2","lat":"57.5468502887","lng":"25.4192540847","zoom":"15","guid":"","country":{"id":"1","name":"Latvia"},"accessHours":[],"available":1},{"id":"161","name":"DNB bankom\u0101ts","city":"Valmiera","address":"Stacijas iela 29","description":"K\u0101rliena\r\nDUS \"Statoil\"\r\nDarba laiks: diennakts","countryId":"1","markerTypeId":"2","lat":"57.5269405296","lng":"25.4348181019","zoom":"18","guid":"","country":{"id":"1","name":"Latvia"},"accessHours":[],"available":1},{"id":"162","name":"DNB bankom\u0101ts","city":"Vanga\u017ei","address":"Vidzemes iela 10","description":"Veikals \"Tropiks\u201c\r\nDarba laiks: diennakts","countryId":"1","markerTypeId":"2","lat":"57.0904415717","lng":"24.5429003651","zoom":"15","guid":"","country":{"id":"1","name":"Latvia"},"accessHours":[],"available":1},{"id":"163","name":"DNB bankom\u0101ts","city":"Ventspils","address":"Aleksandra iela 16\/18","description":"Centrs\r\nVeikals \"Maxima X\"\r\nDarba laiks: diennakts","countryId":"1","markerTypeId":"2","lat":"57.3903405777","lng":"21.5694918810","zoom":"16","guid":"","country":{"id":"1","name":"Latvia"},"accessHours":[],"available":1},{"id":"164","name":"DNB bankom\u0101ts","city":"Ventspils","address":"Gan\u012bbu iela 22\/24","description":"Centrs\r\nVeikals \"Mego\"\r\nDarba laiks: \r\nI - VII 8:00 \u2013 22:00","countryId":"1","markerTypeId":"2","lat":"57.3898346540","lng":"21.5626567963","zoom":"17","guid":"","country":{"id":"1","name":"Latvia"},"accessHours":[],"available":1},{"id":"165","name":"DNB bankom\u0101ts","city":"Ventspils","address":"Kuld\u012bgas iela 5","description":"Autoosta\r\nDarba laiks: diennakts","countryId":"1","markerTypeId":"2","lat":"57.3945731908","lng":"21.5697786614","zoom":"17","guid":"","country":{"id":"1","name":"Latvia"},"accessHours":[],"available":1},{"id":"166","name":"DNB bankom\u0101ts","city":"Ventspils","address":"Kuld\u012bgas iela 23","description":"Centrs\r\n\"G4S Latvia\"\r\nDarba laiks: diennakts","countryId":"1","markerTypeId":"2","lat":"57.3929805493","lng":"21.5646866614","zoom":"16","guid":"","country":{"id":"1","name":"Latvia"},"accessHours":[],"available":1},{"id":"167","name":"DNB bankom\u0101ts","city":"Ventspils","address":"T\u0101rgales iela 62","description":"P\u0101rventa\r\nVeikals \"Supernetto\"\r\nDarba laiks: diennakts","countryId":"1","markerTypeId":"2","lat":"57.4000893347","lng":"21.6031046733","zoom":"17","guid":"","country":{"id":"1","name":"Latvia"},"accessHours":[],"available":1},{"id":"168","name":"DNB bankom\u0101ts","city":"Ventspils","address":"Ug\u0101les iela 12\/14","description":"P\u0101rventa\r\nVeikals \"Beta\"\r\nDarba laiks: \r\nI - VII 8:00 \u2013 01:00","countryId":"1","markerTypeId":"2","lat":"57.4044783067","lng":"21.5971243757","zoom":"16","guid":"","country":{"id":"1","name":"Latvia"},"accessHours":[],"available":1},{"id":"171","name":"DNB  iemaksas\/izmaksas bankom\u0101ts","city":"R\u012bga","address":"Br\u012bv\u012bbas gatve 372","description":"Tirdzniec\u012bbas parks \"Alfa\"\r\nDarba laiks: \r\nI - VII 10:00 \u2013 22:00","countryId":"1","markerTypeId":"6","lat":"56.9827072588","lng":"24.2033994789","zoom":"17","guid":"","country":{"id":"1","name":"Latvia"},"accessHours":[],"available":1},{"id":"172","name":"DNB  iemaksas\/izmaksas bankom\u0101ts","city":"R\u012bga","address":"Elizabetes iela 33","description":"DNB bankas fili\u0101le\r\nDarba laiks: \r\nI - VII 9:00 \u2013 19:00","countryId":"1","markerTypeId":"6","lat":"56.9575600013","lng":"24.1119902480","zoom":"18","guid":"","country":{"id":"1","name":"Latvia"},"accessHours":[],"available":1},{"id":"173","name":"DNB iemaksas\/izmaksas bankom\u0101ts","city":"R\u012bga","address":"Dzirnavu iela 67","description":"Tirdzniec\u012bbas centrs \"Galleria R\u012bga\"\r\nDarba laiks: \r\nI - VII 8:00 \u2013 23:00\r\n","countryId":"1","markerTypeId":"6","lat":"56.9546935794","lng":"24.1209239339","zoom":"18","guid":"","country":{"id":"1","name":"Latvia"},"accessHours":[],"available":1},{"id":"174","name":"DNB iemaksas\/izmaksas bankom\u0101ts","city":"R\u012bga","address":"Krasta iela 46","description":"Tirdzniec\u012bbas centrs \"Mols\"\r\nDarba laiks: \r\nI - VII 9:00 \u2013 22:00","countryId":"1","markerTypeId":"6","lat":"56.9352581128","lng":"24.1443659180","zoom":"16","guid":"","country":{"id":"1","name":"Latvia"},"accessHours":[],"available":1},{"id":"175","name":"DNB iemaksas\/izmaksas bankom\u0101ts","city":"R\u012bga","address":"Lielirbes iela 29","description":"Tirdzniec\u012bbas centrs \"Spice\"\r\nDarba laiks: \r\nI - VII 10:00 \u2013 22:00","countryId":"1","markerTypeId":"6","lat":"56.9290996615","lng":"24.0342733214","zoom":"17","guid":"","country":{"id":"1","name":"Latvia"},"accessHours":[],"available":1},{"id":"176","name":"DNB iemaksas\/izmaksas bankom\u0101ts","city":"R\u012bga","address":"M\u0101rupes iela 2","description":"\u0100genskalns\r\nDnB NORD Bankas fili\u0101les z\u0101l\u0113\r\nDarba laiks: \r\nI \u2013 VI 9:00 \u2013 19:00","countryId":"1","markerTypeId":"6","lat":"56.9350862929","lng":"24.0712518393","zoom":"18","guid":"","country":{"id":"1","name":"Latvia"},"accessHours":[],"available":1},{"id":"177","name":"DNB iemaksas\/izmaksas bankom\u0101ts","city":"R\u012bga","address":"N\u012bcgales iela 2","description":"Purvciems\r\nDNB bankas fili\u0101le\r\nDarba laiks: \r\nI \u2013 VI 9:00 \u2013 19:00","countryId":"1","markerTypeId":"6","lat":"56.9591183945","lng":"24.1764308624","zoom":"17","guid":"","country":{"id":"1","name":"Latvia"},"accessHours":[],"available":1},{"id":"178","name":"DNB iemaksas\/izmaksas bankom\u0101ts","city":"R\u012bga","address":"Stacijas laukums 2","description":"Tirdzniec\u012bbas centrs \"Origo\"\r\nDarba laiks:\r\nI - VII 10:00 \u2013 24:00","countryId":"1","markerTypeId":"6","lat":"56.9476970603","lng":"24.1212149326","zoom":"17","guid":"","country":{"id":"1","name":"Latvia"},"accessHours":[],"available":1},{"id":"179","name":"DNB iemaksas\/izmaksas bankom\u0101ts","city":"Daugavpils","address":"R\u012bgas iela 9","description":"Tirdzniec\u012bbas centrs \"Solo\"\r\nDarba laiks: \r\nI - VII 9:00 \u2013 23:00","countryId":"1","markerTypeId":"6","lat":"55.8718034459","lng":"26.5180534061","zoom":"17","guid":"","country":{"id":"1","name":"Latvia"},"accessHours":[],"available":1},{"id":"180","name":"DNB iemaksas\/izmaksas bankom\u0101ts","city":"Liep\u0101ja","address":"K. Z\u0101les laukums 8","description":"Vecliep\u0101ja\r\nTirdzniec\u012bbas centrs \"Ostmala\"","countryId":"1","markerTypeId":"6","lat":"56.5114515008","lng":"21.0178169312","zoom":"17","guid":"","country":{"id":"1","name":"Latvia"},"accessHours":[],"available":1},{"id":"181","name":"DNB iemaksas\/izmaksas bankom\u0101ts","city":"Valmiera","address":"R\u012bgas iela 4","description":"Tirdzniec\u012bbas centrs \"Valleta\"\r\nDarba laiks: \r\nI - VII 8:00 \u2013 22:00","countryId":"1","markerTypeId":"6","lat":"57.5385905666","lng":"25.4237083188","zoom":"18","guid":"","country":{"id":"1","name":"Latvia"},"accessHours":[],"available":1},{"id":"182","name":"Fili\u0101le \"Lidosta\"","city":"R\u012bga","address":"M\u0101rupes novads, LV-1053","description":"Darba laiks: \r\nI-V 8:00 \u2013 21:00\r\n\r\nT\u0101lrunis: 1880","countryId":"1","markerTypeId":"5","lat":"56.9218355258","lng":"23.9794870876","zoom":"17","guid":"","country":{"id":"1","name":"Latvia"},"accessHours":[],"available":1},{"id":"185","name":"DNB bankom\u0101ts","city":"R\u012bga","address":"Priedaines iela 20","description":"Tirdzniec\u012bbas centrs \u201eMaxima XX\u201d\r\nDarba laiks:\r\nI - VII 8:00 \u2013 22:00","countryId":"1","markerTypeId":"2","lat":"56.9441153740","lng":"24.0175535265","zoom":"16","guid":"","country":{"id":"1","name":"Latvia"},"accessHours":[],"available":1},{"id":"186","name":"DNB bankom\u0101ts","city":"R\u012bga","address":"A.Dombrovska iela 74","description":"Vecm\u012blgr\u0101vis\r\nTirdzniec\u012bbas centrs \"Maxima X\"\r\nDarba laiks: diennakts","countryId":"1","markerTypeId":"2","lat":"57.0362616155","lng":"24.0975655635","zoom":"16","guid":"","country":{"id":"1","name":"Latvia"},"accessHours":[],"available":1},{"id":"187","name":"DNB bankom\u0101ts","city":"C\u0113sis","address":"Valmieras iela 17a","description":"Tirdzniec\u012bbas centrs \"Maxima XX\"\r\nDarba laiks:\r\nI - VII 8:00 - 22:00","countryId":"1","markerTypeId":"2","lat":"57.3174604209","lng":"25.2815333571","zoom":"17","guid":"","country":{"id":"1","name":"Latvia"},"accessHours":[],"available":1}]