[{"type":"fcico","id":["53","496","491","700"],"name":"Daugavpils fili\u0101le,Izmaksas autom\u0101ts,Iemaksas autom\u0101ts","address":"Daugavpils, R\u012bgas iela 22a,\r\nt\u0101lr. 67444444\r\nfakss 67448604","city":"Daugavpils","lat":"55.8704","lng":"26.5151","description":"<br \/>Daugavpils fili\u0101le<\/b> - darbdien\u0101s 9:00-17:00<br \/>Izmaksas autom\u0101ts - neierobe\u017eots darba laiks
Iemaksas autom\u0101ts - darbdien\u0101s 9:00-17:00

Daugavpils, R\u012bgas iela 22a,\r\nt\u0101lr. 67444444\r\nfakss 67448604
"},{"type":"fco","id":["89","627"],"name":"Daugavpils fili\u0101le \"Dimants\",Izmaksas autom\u0101ts","address":"Daugavpils, Sak\u0146u iela 15, \r\nt\u0101lr. 67444444\r\nfakss 67448735","city":"Daugavpils","lat":"55.8739","lng":"26.5216","description":"
Daugavpils fili\u0101le \"Dimants\" - darbdien\u0101s 9:00-18:00\r\nsestdien\u0101s 10:00-14:00
Izmaksas autom\u0101ts - neierobe\u017eots darba laiks

Daugavpils, Sak\u0146u iela 15, \r\nt\u0101lr. 67444444\r\nfakss 67448735
"},{"type":"fco","id":["68","535"],"name":"Prei\u013cu fili\u0101le,Izmaksas autom\u0101ts","address":"Prei\u013ci, R\u0113zeknes iela 15, \r\nt\u0101lr. 67444444\r\nfakss 67448685","city":"Prei\u013ci","lat":"56.2956","lng":"26.7261","description":"
Prei\u013cu fili\u0101le - darbdien\u0101s 9:00-17:00
Izmaksas autom\u0101ts - neierobe\u017eots darba laiks

Prei\u013ci, R\u0113zeknes iela 15, \r\nt\u0101lr. 67444444\r\nfakss 67448685
"},{"type":"fcico","id":["51","486","697"],"name":"Bauskas fili\u0101le,Izmaksas autom\u0101ts,Iemaksas autom\u0101ts","address":"Bauska, Slimn\u012bcas iela 7,\r\nt\u0101lr.  67444444\r\nfakss 67448480","city":"Bauska","lat":"56.4072","lng":"24.1953","description":"
Bauskas fili\u0101le - darbdien\u0101s 9:00-17:00
Izmaksas autom\u0101ts - neierobe\u017eots darba laiks
Iemaksas autom\u0101ts - darbdien\u0101s 9:00-17:00

Bauska, Slimn\u012bcas iela 7,\r\nt\u0101lr.  67444444\r\nfakss 67448480
"},{"type":"fco","id":["58","508"],"name":"J\u0113kabpils fili\u0101le,Izmaksas autom\u0101ts","address":"J\u0113kabpils,Br\u012bv\u012bbas iela 131,\r\nt\u0101lr. 67444444\r\nfakss 67448370","city":"J\u0113kabpils","lat":"56.4954","lng":"25.8696","description":"
J\u0113kabpils fili\u0101le - darbdien\u0101s 9:00-17:00
Izmaksas autom\u0101ts - neierobe\u017eots darba laiks

J\u0113kabpils,Br\u012bv\u012bbas iela 131,\r\nt\u0101lr. 67444444\r\nfakss 67448370
"},{"type":"fcico","id":["62","522","713"],"name":"Fili\u0101le \"Kurzeme\",Izmaksas autom\u0101ts,Iemaksas autom\u0101ts","address":"Liep\u0101ja, Tirgo\u0146u iela 18, \r\nt\u0101lr. 67444444\r\nfakss 63403003","city":"Liep\u0101ja","lat":"56.5068","lng":"21.0096","description":"
Fili\u0101le \"Kurzeme\" - darbdien\u0101s 8:30-18:00
Izmaksas autom\u0101ts - neierobe\u017eots darba laiks
Iemaksas autom\u0101ts - darbdien\u0101s 08:30-18:00

Liep\u0101ja, Tirgo\u0146u iela 18, \r\nt\u0101lr. 67444444\r\nfakss 63403003
"},{"type":"fcico","id":["69","536","720"],"name":"R\u0113zeknes fili\u0101le,Izmaksas autom\u0101ts,Iemaksas autom\u0101ts","address":"R\u0113zekne, 18. Novembra iela 16,\r\nt\u0101lr. 67444444\r\nfakss 67448935","city":"R\u0113zekne","lat":"56.5098","lng":"27.3342","description":"
R\u0113zeknes fili\u0101le - darbdien\u0101s 9:00-17:00
Izmaksas autom\u0101ts - neierobe\u017eots darba laiks
Iemaksas autom\u0101ts - darbdien\u0101s 9:00-17:00

R\u0113zekne, 18. Novembra iela 16,\r\nt\u0101lr. 67444444\r\nfakss 67448935
"},{"type":"fco","id":["63","590"],"name":"Fili\u0101le \"Sp\u012b\u0137eris\",Izmaksas autom\u0101ts","address":"Liep\u0101ja, J\u016bras iela 12,\r\nt\u0101lr. 67444444\r\nfakss 67448234\r\n","city":"Liep\u0101ja","lat":"56.5119","lng":"21.0106","description":"
Fili\u0101le \"Sp\u012b\u0137eris\" - darbdien\u0101s 9:00-17:00
Izmaksas autom\u0101ts - neierobe\u017eots darba laiks

Liep\u0101ja, J\u016bras iela 12,\r\nt\u0101lr. 67444444\r\nfakss 67448234\r\n
"},{"type":"fcico","id":["50","482","695"],"name":"Aizkraukles fili\u0101le,Izmaksas autom\u0101ts,Iemaksas autom\u0101ts","address":"Aizkraukle, B\u0113rzu iela 7,\r\nt\u0101lr.  67444444\r\nfakss 67448891","city":"Aizkraukle","lat":"56.6027","lng":"25.2549","description":"
Aizkraukles fili\u0101le - darbdien\u0101s 9:00-17:00
Izmaksas autom\u0101ts - neierobe\u017eots darba laiks
Iemaksas autom\u0101ts - darbdien\u0101s 9:00-17:00

Aizkraukle, B\u0113rzu iela 7,\r\nt\u0101lr.  67444444\r\nfakss 67448891
"},{"type":"fco","id":["78","555"],"name":"Varak\u013c\u0101nu fili\u0101le,Izmaksas autom\u0101ts","address":"Varak\u013c\u0101ni, R\u012bgas iela 13,\r\nt\u0101lr. 67444444\r\nfakss 67448688","city":"Varak\u013c\u0101ni","lat":"56.6082","lng":"26.7544","description":"
Varak\u013c\u0101nu fili\u0101le - darbdien\u0101s 9:00-17:00
Izmaksas autom\u0101ts - neierobe\u017eots darba laiks

Varak\u013c\u0101ni, R\u012bgas iela 13,\r\nt\u0101lr. 67444444\r\nfakss 67448688
"},{"type":"fcico","id":["54","499","703"],"name":"Dobeles fili\u0101le,Izmaksas autom\u0101ts,Iemaksas autom\u0101ts","address":"Dobele, Br\u012bv\u012bbas iela 10b,\r\nt\u0101lr.  67444444\r\nfakss 63707330; 67448900","city":"Dobele","lat":"56.6247","lng":"23.2783","description":"
Dobeles fili\u0101le - darbdien\u0101s 9:00-17:00
Izmaksas autom\u0101ts - neierobe\u017eots darba laiks
Iemaksas autom\u0101ts - katru dienu 8:00-22:00

Dobele, Br\u012bv\u012bbas iela 10b,\r\nt\u0101lr.  67444444\r\nfakss 63707330; 67448900
"},{"type":"fcico","id":["91","568","710"],"name":"Fili\u0101le \"Hercogs\",Izmaksas autom\u0101ts,Iemaksas autom\u0101ts","address":"Jelgava, Pasta iela 47,\r\nt\u0101lr. 67444444\r\nfakss 67448981","city":"Jelgava","lat":"56.6478","lng":"23.7251","description":"
Fili\u0101le \"Hercogs\" - darbdien\u0101s 9:00-19:00\r\nsestdien\u0101s 9:00\u201315:00
Izmaksas autom\u0101ts - neierobe\u017eots darba laiks
Iemaksas autom\u0101ts - katru dienu 8:00-22:00 

Jelgava, Pasta iela 47,\r\nt\u0101lr. 67444444\r\nfakss 67448981
"},{"type":"fcico","id":["56","514","705"],"name":"Jelgavas fili\u0101le,Izmaksas autom\u0101ts,Iemaksas autom\u0101ts","address":"Jelgava, Liel\u0101 iela 1,\r\nt\u0101lr. 67444444\r\nfakss 63007671; 67448751","city":"Jelgava","lat":"56.6531","lng":"23.7289","description":"
Jelgavas fili\u0101le - darbdien\u0101s 9:00-17:00
Izmaksas autom\u0101ts - neierobe\u017eots darba laiks
Iemaksas autom\u0101ts - darbdien\u0101s 9:00-17:00

Jelgava, Liel\u0101 iela 1,\r\nt\u0101lr. 67444444\r\nfakss 63007671; 67448751
"},{"type":"fcico","id":["72","543","721"],"name":"Saldus fili\u0101le,Izmaksas autom\u0101ts,Iemaksas autom\u0101ts","address":"Saldus, Stri\u0137u iela 2,\r\nt\u0101lr. 67444444\r\nfakss 67448828","city":"Saldus","lat":"56.6662","lng":"22.4937","description":"
Saldus fili\u0101le - darbdien\u0101s 9:00-17:00
Izmaksas autom\u0101ts - neierobe\u017eots darba laiks
Iemaksas autom\u0101ts - darbdien\u0101s 9:00-17:00

Saldus, Stri\u0137u iela 2,\r\nt\u0101lr. 67444444\r\nfakss 67448828
"},{"type":"fco","id":["90","632"],"name":"Aizputes fili\u0101le,Izmaksas autom\u0101ts","address":"Atmodas iela 26, Aizpute, \r\nT\u0101lr. 67444444\r\nFakss 67448399\r\n","city":"Aizpute","lat":"56.7188","lng":"21.6047","description":"
Aizputes fili\u0101le - darbdien\u0101s 9:00-17:00
Izmaksas autom\u0101ts - neierobe\u017eots darba laiks

Atmodas iela 26, Aizpute, \r\nT\u0101lr. 67444444\r\nFakss 67448399\r\n
"},{"type":"f","id":["66"],"name":"Olaines fili\u0101le","address":"Olaine, R\u016bpn\u012bcu iela 4 (Nordic Industrial Park),\r\nt\u0101lr. 67444444\r\nfakss 67445960","city":"Olaine","lat":"56.7924","lng":"23.9557","description":"
Olaines fili\u0101le - darbdien\u0101s 9:00-17:00

Olaine, R\u016bpn\u012bcu iela 4 (Nordic Industrial Park),\r\nt\u0101lr. 67444444\r\nfakss 67445960
"},{"type":"f","id":["65"],"name":"Ogres fili\u0101le","address":"Ogre, Br\u012bv\u012bbas iela 11,\r\nt\u0101lr. 67444444\r\nfakss 67448838","city":"Ogre","lat":"56.8169","lng":"24.6048","description":"
Ogres fili\u0101le - darbdien\u0101s 9:00-17:00

Ogre, Br\u012bv\u012bbas iela 11,\r\nt\u0101lr. 67444444\r\nfakss 67448838
"},{"type":"f","id":["64"],"name":"Madonas fili\u0101le","address":"Madona, Saules iela 16,\r\nt\u0101lr. 67444444\r\nfakss 67448531","city":"Madona","lat":"56.8545","lng":"26.2242","description":"
Madonas fili\u0101le - darbdien\u0101s 9:00-17:00

Madona, Saules iela 16,\r\nt\u0101lr. 67444444\r\nfakss 67448531
"},{"type":"fci","id":["41","687"],"name":"Fili\u0101le \"Rumbula\",Iemaksas autom\u0101ts","address":"R\u012bga, Maskavas iela 400 (t\/c \"Zoom\"),\r\nt\u0101lr. 67444444\r\nfakss 67260430","city":"R\u012bga","lat":"56.8981","lng":"24.2077","description":"
Fili\u0101le \"Rumbula\" - darbdien\u0101s 9:00-20:00\r\nsestdien\u0101s 10:00-15:00\r\nsv\u0113tdien\u0101s sl\u0113gts
Iemaksas autom\u0101ts - T\/c darba laiks

R\u012bga, Maskavas iela 400 (t\/c \"Zoom\"),\r\nt\u0101lr. 67444444\r\nfakss 67260430
"},{"type":"fci","id":["24","677"],"name":"Fili\u0101le \"\u0136engarags\",Iemaksas autom\u0101ts","address":"R\u012bga, Maskavas iela 240,\r\nt\u0101lr. 67444444\r\nfakss 67803191","city":"R\u012bga","lat":"56.9195","lng":"24.1722","description":"
Fili\u0101le \"\u0136engarags\" - darbdien\u0101s 9:00-17:00
Iemaksas autom\u0101ts - darbdien\u0101s 9:00-17:00

R\u012bga, Maskavas iela 240,\r\nt\u0101lr. 67444444\r\nfakss 67803191
"},{"type":"fcico","id":["49","419","692"],"name":"Fili\u0101le \"Zemgale\",Izmaksas autom\u0101ts,Iemaksas autom\u0101ts","address":"R\u012bga, Vien\u012bbas gatve 51,\r\nt\u0101lr. 67444444\r\nfakss 67625151","city":"R\u012bga","lat":"56.9197","lng":"24.0886","description":"
Fili\u0101le \"Zemgale\" - darbdien\u0101s 9:00-17:00
Izmaksas autom\u0101ts - neierobe\u017eots darba laiks
Iemaksas autom\u0101ts - darbdien\u0101s 9:00-17:00

R\u012bga, Vien\u012bbas gatve 51,\r\nt\u0101lr. 67444444\r\nfakss 67625151
"},{"type":"fcico","id":["26","364","678"],"name":"Fili\u0101le \"Lidosta\",Izmaksas autom\u0101ts,Iemaksas autom\u0101ts","address":"Lidosta \"R\u012bga\",\r\nt\u0101lr. 67444444\r\nfakss 67444455","city":"R\u012bga","lat":"56.9221","lng":"23.9794","description":"
Fili\u0101le \"Lidosta\" - darbdien\u0101s 9:00-17:00
Izmaksas autom\u0101ts - neierobe\u017eots darba laiks
Iemaksas autom\u0101ts - 24 h

Lidosta \"R\u012bga\",\r\nt\u0101lr. 67444444\r\nfakss 67444455
"},{"type":"f","id":["22"],"name":"Fili\u0101le \"Kalnciems\"","address":"R\u012bga, K.Ulma\u0146a gatv\u0113 88a (t\/c \"Maxima\"),\r\nt\u0101lr. 67444444\r\nfakss 67455443","city":"R\u012bga","lat":"56.9282","lng":"24.0246","description":"
Fili\u0101le \"Kalnciems\" - darbdien\u0101s 10:00-20:00
\r\nsestdien\u0101s 10:00-18:00

R\u012bga, K.Ulma\u0146a gatv\u0113 88a (t\/c \"Maxima\"),\r\nt\u0101lr. 67444444\r\nfakss 67455443
"},{"type":"f","id":["93"],"name":"Fili\u0101le \"R\u012bga Plaza\"","address":"R\u012bga, M\u016bkusalas iela 71 (t\/c \"R\u012bga Plaza\"),\r\nt\u0101lr. 67444444\r\nfakss 67446209","city":"R\u012bga","lat":"56.9288","lng":"24.107","description":"
Fili\u0101le \"R\u012bga Plaza\" - darbdien\u0101s 10:00-19:00 \r\nsestdien\u0101s 10:00-16:00\r\nsv\u0113tdien\u0101s br\u012bvs 

R\u012bga, M\u016bkusalas iela 71 (t\/c \"R\u012bga Plaza\"),\r\nt\u0101lr. 67444444\r\nfakss 67446209
"},{"type":"fci","id":["35","681"],"name":"Fili\u0101le \"Spice\",Iemaksas autom\u0101ts","address":"R\u012bga, Lielirbes iela 29 (t\/c \"Spice\"),\r\nt\u0101lr. 67444444\r\nfakss 67446273","city":"R\u012bga","lat":"56.9305","lng":"24.0346","description":"
Fili\u0101le \"Spice\" - darbdien\u0101s 09:30-20.00 \r\nsestdien\u0101s un sv\u0113tdien\u0101s 09:30-18.00
Iemaksas autom\u0101ts - ir pieejams T\/C \"Spice\" darba laik\u0101

R\u012bga, Lielirbes iela 29 (t\/c \"Spice\"),\r\nt\u0101lr. 67444444\r\nfakss 67446273
"},{"type":"fco","id":["33","392"],"name":"Fili\u0101le \"Mols\",Izmaksas autom\u0101ts","address":"R\u012bga, Krasta iela 46 (t\/c \"Mols\"),\r\nt\u0101lr. 67444444\r\nfakss 67445139","city":"R\u012bga","lat":"56.9337","lng":"24.1433","description":"
Fili\u0101le \"Mols\" - darbadien\u0101s 10:00-21:00\r\nsestdien\u0101s 10:00-20:00\r\nsv\u0113tdien\u0101s 10:00-19:00
Izmaksas autom\u0101ts - neierobe\u017eots darba laiks

R\u012bga, Krasta iela 46 (t\/c \"Mols\"),\r\nt\u0101lr. 67444444\r\nfakss 67445139
"},{"type":"f","id":["14"],"name":"Fili\u0101le \"\u0100genskalns\"","address":"R\u012bga, Maz\u0101 Nomet\u0146u iela 27\r\nt\u0101lr. 67444444\r\nfakss 67805561","city":"R\u012bga","lat":"56.9354","lng":"24.0717","description":"
Fili\u0101le \"\u0100genskalns\" - darbdien\u0101s 9:00-17:00

R\u012bga, Maz\u0101 Nomet\u0146u iela 27\r\nt\u0101lr. 67444444\r\nfakss 67805561
"},{"type":"f","id":["36"],"name":"Fili\u0101le \"P\u013cavnieki\"","address":"R\u012bga, A.Saharova 20a (t\/c \"Maxima\"),\r\nt\u0101lr. 67444444\r\nfakss 67445098, 67445091","city":"R\u012bga","lat":"56.9404","lng":"24.2046","description":"
Fili\u0101le \"P\u013cavnieki\" - darbdien\u0101s 10:00-20:00,\r\nsestdien\u0101s 10:00-18:00, \r\nsv\u0113tdien\u0101s 10:00-15:00

R\u012bga, A.Saharova 20a (t\/c \"Maxima\"),\r\nt\u0101lr. 67444444\r\nfakss 67445098, 67445091
"},{"type":"f","id":["46"],"name":"Fili\u0101le \"Origo\"","address":"R\u012bga, Stacijas laukums 2 (t\/c \"Origo\"),\r\nt\u0101lr. 67444444\r\nfakss 67445495","city":"R\u012bga","lat":"56.9466","lng":"24.1201","description":"
Fili\u0101le \"Origo\" - darbadien\u0101s 8:00-21:00,\r\nsestdien\u0101s 8:00-20:00,\r\nsv\u0113tdien\u0101s 8:00-19:00.

R\u012bga, Stacijas laukums 2 (t\/c \"Origo\"),\r\nt\u0101lr. 67444444\r\nfakss 67445495
"},{"type":"fcico","id":["25","477","476","670"],"name":"Fili\u0101le \"\u0136\u012bpsala\",Izmaksas autom\u0101ts,Iemaksas autom\u0101ts","address":"R\u012bga, Balasta dambis 1a,\r\nt\u0101lr. 67444444\r\nfakss 67444501","city":"R\u012bga","lat":"56.9488","lng":"24.0886","description":"
Fili\u0101le \"\u0136\u012bpsala\" - darbdien\u0101s 9:00-17:00
Izmaksas autom\u0101ts - neierobe\u017eots darba laiks
Iemaksas autom\u0101ts - darbdien\u0101s no 8:00 - 20:00

R\u012bga, Balasta dambis 1a,\r\nt\u0101lr. 67444444\r\nfakss 67444501
"},{"type":"fci","id":["17","659"],"name":"Fili\u0101le \"Centrs\",Iemaksas autom\u0101ts","address":"R\u012bga, Ka\u013c\u0137u iela 26,\r\nt\u0101lr. 67444444\r\nfakss 67446477","city":"R\u012bga","lat":"56.9499","lng":"24.1109","description":"
Fili\u0101le \"Centrs\" - darbdien\u0101s 9:00-19:00\r\n
Iemaksas autom\u0101ts - darbdien\u0101s: 9:00-19:00

R\u012bga, Ka\u013c\u0137u iela 26,\r\nt\u0101lr. 67444444\r\nfakss 67446477
"},{"type":"fcico","id":["42","432","667"],"name":"Fili\u0101le \"Sakta\",Izmaksas autom\u0101ts,Iemaksas autom\u0101ts","address":"R\u012bga, Rai\u0146a bulv\u0101ris 11,\r\nt\u0101lr. 67444444\r\nfakss 67024511","city":"R\u012bga","lat":"56.9516","lng":"24.1142","description":"
Fili\u0101le \"Sakta\" - darbdien\u0101s 9:00-17:00
Izmaksas autom\u0101ts - neierobe\u017eots darba laiks
Iemaksas autom\u0101ts - darbdien\u0101s 9:00-17:00

R\u012bga, Rai\u0146a bulv\u0101ris 11,\r\nt\u0101lr. 67444444\r\nfakss 67024511
"},{"type":"fci","id":["12","658"],"name":"Fili\u0101le \"Andris\",Iemaksas autom\u0101ts","address":"R\u012bga, A.\u010caka iela 37,\r\nt\u0101lr. 67444444\r\nfakss 1.st\u0101v\u0101 67285589\r\nfakss 2.st\u0101v\u0101 67285590","city":"R\u012bga","lat":"56.9522","lng":"24.1288","description":"
Fili\u0101le \"Andris\" - darbdien\u0101s 10:00-18:00
Iemaksas autom\u0101ts - darbdien\u0101s 9:00-18:00

R\u012bga, A.\u010caka iela 37,\r\nt\u0101lr. 67444444\r\nfakss 1.st\u0101v\u0101 67285589\r\nfakss 2.st\u0101v\u0101 67285590
"},{"type":"f","id":["40"],"name":"Fili\u0101le \"Reval\"","address":"R\u012bga, Elizabetes iel\u0101 55 (Radisson Blu Hotel Latvija),\r\nt\u0101lr. 67444444\r\nfakss 67214353","city":"R\u012bga","lat":"56.955","lng":"24.1189","description":"
Fili\u0101le \"Reval\" - darbdien\u0101s 9:00-19:00\r\n

R\u012bga, Elizabetes iel\u0101 55 (Radisson Blu Hotel Latvija),\r\nt\u0101lr. 67444444\r\nfakss 67214353
"},{"type":"fci","id":["11","657"],"name":"Fili\u0101le \"Aleksandrs\",Iemaksas autom\u0101ts","address":"R\u012bga, \u010caka iela 73\/75,\r\nt\u0101lr. 67444444\r\nfakss 67842092","city":"R\u012bga","lat":"56.9561","lng":"24.136","description":"
Fili\u0101le \"Aleksandrs\" - darbdien\u0101s 9:00-17:00
Iemaksas autom\u0101ts - darbdien\u0101s: 9:00-17:00

R\u012bga, \u010caka iela 73\/75,\r\nt\u0101lr. 67444444\r\nfakss 67842092
"},{"type":"fci","id":["37","686"],"name":"Fili\u0101le \"Purvciems\",Iemaksas autom\u0101ts","address":"R\u012bga, Dzelzavas iela 51,\r\nt\u0101lr. 67444444\r\nfakss 67579100","city":"R\u012bga","lat":"56.9568","lng":"24.1897","description":"
Fili\u0101le \"Purvciems\" - darbdien\u0101s 9:00-17:00
Iemaksas autom\u0101ts - darbdien\u0101s 9:00-17:00

R\u012bga, Dzelzavas iela 51,\r\nt\u0101lr. 67444444\r\nfakss 67579100
"},{"type":"f","id":["19"],"name":"Fili\u0101le \"Elizabete\"","address":"R\u012bga, Str\u0113lnieku iela 1,\r\nt\u0101lr. 67444444\r\nfakss 67812651","city":"R\u012bga","lat":"56.9587","lng":"24.1061","description":"
Fili\u0101le \"Elizabete\" - darbdien\u0101s 9:00-17:00

R\u012bga, Str\u0113lnieku iela 1,\r\nt\u0101lr. 67444444\r\nfakss 67812651
"},{"type":"fci","id":["31","663"],"name":"Fili\u0101le \"Mat\u012bss\",Iemaksas autom\u0101ts","address":"R\u012bga, Br\u012bv\u012bbas iela 90,\r\nt\u0101lr. 67444444\r\nfakss 67339170","city":"R\u012bga","lat":"56.9599","lng":"24.1292","description":"
Fili\u0101le \"Mat\u012bss\" - darbdien\u0101s 9:00-17:00
Iemaksas autom\u0101ts - darbdien\u0101s 9:00-17:00

R\u012bga, Br\u012bv\u012bbas iela 90,\r\nt\u0101lr. 67444444\r\nfakss 67339170
"},{"type":"f","id":["20"],"name":"Fili\u0101le \"Imanta\"","address":"R\u012bga, Slokas iela 115 (t\/c \"Maxima\"),\r\nt\u0101lr. 67444444\r\nfakss 67441747","city":"R\u012bga","lat":"56.9613","lng":"24.0357","description":"
Fili\u0101le \"Imanta\" - darbdien\u0101s 10:00 - 20:00 
sestdien\u0101s  10:00 - 18:00,
 sv\u0113tdien\u0101s 10:00 - 15:00

R\u012bga, Slokas iela 115 (t\/c \"Maxima\"),\r\nt\u0101lr. 67444444\r\nfakss 67441747
"},{"type":"fcico","id":["48","371","672"],"name":"Fili\u0101le \"Vi\u013c\u0146a\",Izmaksas autom\u0101ts,Iemaksas autom\u0101ts","address":"R\u012bga, Kurzemes prospekts 132\r\nt\u0101lr. 67444444\r\nfakss 67420016","city":"R\u012bga","lat":"56.9621","lng":"23.9992","description":"
Fili\u0101le \"Vi\u013c\u0146a\" - darbdien\u0101s 9:00-17:00
Izmaksas autom\u0101ts - neierobe\u017eots darba laiks
Iemaksas autom\u0101ts - darbdien\u0101s 9:00-17:00

R\u012bga, Kurzemes prospekts 132\r\nt\u0101lr. 67444444\r\nfakss 67420016
"},{"type":"fco","id":["76","549"],"name":"Tukuma fili\u0101le,Izmaksas autom\u0101ts","address":"Tukums, Pils iela 15a,\r\nt\u0101lr. 67444444\r\nfakss 67448298; 67448299","city":"Tukums","lat":"56.9653","lng":"23.1583","description":"
Tukuma fili\u0101le - darbdien\u0101s 9:00-17:00
Izmaksas autom\u0101ts - neierobe\u017eots darba laiks

Tukums, Pils iela 15a,\r\nt\u0101lr. 67444444\r\nfakss 67448298; 67448299
"},{"type":"fci","id":["18","684","685"],"name":"Fili\u0101le \"Domina\",Iemaksas autom\u0101ts","address":"R\u012bga, Ieri\u0137u iela 3 (t\/c \"Domina\"),\r\nt\u0101lr. 67444444\r\nfakss 67446290","city":"R\u012bga","lat":"56.9656","lng":"24.1697","description":"
Fili\u0101le \"Domina\" - darbdien\u0101s 10:00-20:00\r\nsestdien\u0101s 10:00-17:00\r\nsv\u0113tdien\u0101s br\u012bvs
Iemaksas autom\u0101ts -  ir pieejams T\/c \"Domina\" darba laik\u0101 

R\u012bga, Ieri\u0137u iela 3 (t\/c \"Domina\"),\r\nt\u0101lr. 67444444\r\nfakss 67446290
"},{"type":"fcico","id":["59","619","707"],"name":"Fili\u0101le \"Dubulti\",Izmaksas autom\u0101ts,Iemaksas autom\u0101ts","address":"J\u016brmala, Dubultu prospekts 3,\r\nt\u0101lr. 67444444\r\nfakss 67 764100","city":"J\u016brmala","lat":"56.9681","lng":"23.7716","description":"
Fili\u0101le \"Dubulti\" - darbdien\u0101s 9:00-17:00
Izmaksas autom\u0101ts - neierobe\u017eots darba laiks
Iemaksas autom\u0101ts - darbdien\u0101s 9:00-17:00

J\u016brmala, Dubultu prospekts 3,\r\nt\u0101lr. 67444444\r\nfakss 67 764100
"},{"type":"f","id":["47"],"name":"Fili\u0101le \"Valdem\u0101rs\"","address":"R\u012bga, K.Valdem\u0101ra iela 106\/108,\r\nt\u0101lr. 67444444\r\nfakss 67378800","city":"R\u012bga","lat":"56.9718","lng":"24.1346","description":"
Fili\u0101le \"Valdem\u0101rs\" - darbdien\u0101s 9:00-17:00

R\u012bga, K.Valdem\u0101ra iela 106\/108,\r\nt\u0101lr. 67444444\r\nfakss 67378800
"},{"type":"fcico","id":["60","520","711"],"name":"Kuld\u012bgas fili\u0101le,Izmaksas autom\u0101ts,Iemaksas autom\u0101ts","address":"Kuld\u012bga, Pils\u0113tas laukums 4A,\r\nt\u0101lr. 67444444\r\nfakss 67448590","city":"Kuld\u012bga","lat":"56.9759","lng":"21.957","description":"
Kuld\u012bgas fili\u0101le - darbdien\u0101s 9:00-17:00
Izmaksas autom\u0101ts - neierobe\u017eots darba laiks
Iemaksas autom\u0101ts - T\/c darba laiks

Kuld\u012bga, Pils\u0113tas laukums 4A,\r\nt\u0101lr. 67444444\r\nfakss 67448590
"},{"type":"fci","id":["44","691"],"name":"Fili\u0101le \"Teika\",Iemaksas autom\u0101ts","address":"R\u012bga, Br\u012bv\u012bbas gatve 263,\r\nt\u0101lr. 67444444\r\nfakss 67801415","city":"R\u012bga","lat":"56.9786","lng":"24.1842","description":"
Fili\u0101le \"Teika\" - darbdien\u0101s 9:00-17:00
Iemaksas autom\u0101ts - darbdien\u0101s 9:00-17:00

R\u012bga, Br\u012bv\u012bbas gatve 263,\r\nt\u0101lr. 67444444\r\nfakss 67801415
"},{"type":"fcico","id":["10","465","464","688","690"],"name":"Fili\u0101le \"Alfa\",Izmaksas autom\u0101ts,Iemaksas autom\u0101ts","address":"R\u012bga, Br\u012bv\u012bbas gatve 372,\r\nt\u0101lr. 67444444\r\nFakss 67446319","city":"R\u012bga","lat":"56.9837","lng":"24.2014","description":"
Fili\u0101le \"Alfa\" - darbdien\u0101s 10:00-21:00\r\nsestdien\u0101s 10:00-20:00\r\nsv\u0113tdien\u0101s 10:00-19:00
Izmaksas autom\u0101ts - neierobe\u017eots darba laiks
Iemaksas autom\u0101ts - T\/c darba laiks

R\u012bga, Br\u012bv\u012bbas gatve 372,\r\nt\u0101lr. 67444444\r\nFakss 67446319
"},{"type":"fcico","id":["21","472","673"],"name":"Fili\u0101le \"Jugla\",Izmaksas autom\u0101ts,Iemaksas autom\u0101ts","address":"R\u012bga, Br\u012bv\u012bbas gatve 432,\r\nt\u0101lr. 67444444\r\nfakss 67840855","city":"R\u012bga","lat":"56.9897","lng":"24.2419","description":"
Fili\u0101le \"Jugla\" - darbdien\u0101s 9:00-17:00
Izmaksas autom\u0101ts - neierobe\u017eots darba laiks
Iemaksas autom\u0101ts - darbdien\u0101s 9:00-17:00

R\u012bga, Br\u012bv\u012bbas gatve 432,\r\nt\u0101lr. 67444444\r\nfakss 67840855
"},{"type":"fco","id":["43","418"],"name":"Fili\u0101le \"Sarkandaugava\",Izmaksas autom\u0101ts","address":"R\u012bga, Tilta iela 8,\r\nt\u0101lr. 67444444\r\nfakss 67445480","city":"R\u012bga","lat":"56.9935","lng":"24.1237","description":"
Fili\u0101le \"Sarkandaugava\" - darbdien\u0101s 10:00-18:00
Izmaksas autom\u0101ts - neierobe\u017eots darba laiks

R\u012bga, Tilta iela 8,\r\nt\u0101lr. 67444444\r\nfakss 67445480
"},{"type":"f","id":["85"],"name":"Fili\u0101le \"Bolder\u0101ja\"","address":"R\u012bga, St\u016brma\u0146u iela 27,\r\nt\u0101lr. 67444444\r\nfakss: 67446530","city":"R\u012bga","lat":"57.033","lng":"24.0486","description":"
Fili\u0101le \"Bolder\u0101ja\" - darbdien\u0101s 10:00-18:00

R\u012bga, St\u016brma\u0146u iela 27,\r\nt\u0101lr. 67444444\r\nfakss: 67446530
"},{"type":"fci","id":["92","693"],"name":"Fili\u0101le \"Vecm\u012blgr\u0101vis\",Iemaksas autom\u0101ts","address":"R\u012bga, Skuju iela 25,\r\nt\u0101lr. 67444444\r\nfakss 67446598","city":"R\u012bga","lat":"57.0332","lng":"24.1053","description":"
Fili\u0101le \"Vecm\u012blgr\u0101vis\" - darbdien\u0101s 10:00-18:00
Iemaksas autom\u0101ts - darbdien\u0101s 10:00-18:00

R\u012bga, Skuju iela 25,\r\nt\u0101lr. 67444444\r\nfakss 67446598
"},{"type":"fco","id":["73","630"],"name":"Siguldas fili\u0101le,Izmaksas autom\u0101ts","address":"Sigulda, Pils iela 13,\r\nt\u0101lr. 67444444\r\nfakss 67976798","city":"Sigulda","lat":"57.1583","lng":"24.8521","description":"
Siguldas fili\u0101le - darbdien\u0101s 9:00-17:00
Izmaksas autom\u0101ts - neierobe\u017eots darba laiks

Sigulda, Pils iela 13,\r\nt\u0101lr. 67444444\r\nfakss 67976798
"},{"type":"fco","id":["55","502"],"name":"Gulbenes fili\u0101le,Izmaksas autom\u0101ts","address":"Gulbene, R\u012bgas iela 47,\r\nt\u0101lr. 67444444\r\nfakss 67448525","city":"Gulbene","lat":"57.1731","lng":"26.7574","description":"
Gulbenes fili\u0101le - darbdien\u0101s 9:00-17:00
Izmaksas autom\u0101ts - neierobe\u017eots darba laiks

Gulbene, R\u012bgas iela 47,\r\nt\u0101lr. 67444444\r\nfakss 67448525
"},{"type":"fcico","id":["75","547","725"],"name":"Talsu fili\u0101le,Izmaksas autom\u0101ts,Iemaksas autom\u0101ts","address":"Talsi, Liel\u0101 iela 22,\r\nt\u0101lr. 67444444\r\nfakss 63232175","city":"Talsi","lat":"57.2443","lng":"22.5918","description":"
Talsu fili\u0101le - darbdien\u0101s 9:00-17:00
Izmaksas autom\u0101ts - neierobe\u017eots darba laiks
Iemaksas autom\u0101ts - darbdien\u0101s 9:00-17:00

Talsi, Liel\u0101 iela 22,\r\nt\u0101lr. 67444444\r\nfakss 63232175
"},{"type":"fcico","id":["52","488","699"],"name":"C\u0113su fili\u0101le,Izmaksas autom\u0101ts,Iemaksas autom\u0101ts","address":"C\u0113sis, Uzvaras bulv\u0101ris 12,\r\nt\u0101lr. 67444444\r\nfakss 67448154","city":"C\u0113sis","lat":"57.3146","lng":"25.2794","description":"
C\u0113su fili\u0101le - darbdien\u0101s 9:00-17:00
Izmaksas autom\u0101ts - neierobe\u017eots darba laiks
Iemaksas autom\u0101ts - darbdien\u0101s 9:00-17:00

C\u0113sis, Uzvaras bulv\u0101ris 12,\r\nt\u0101lr. 67444444\r\nfakss 67448154
"},{"type":"fcico","id":["79","561","729"],"name":"Ventspils fili\u0101le,Izmaksas autom\u0101ts,Iemaksas autom\u0101ts","address":"Ventspils, Kuld\u012bgas iela 25a,\r\nt\u0101lr. 67444444\r\nfakss 67448438;  67448441","city":"Ventspils","lat":"57.3927","lng":"21.5642","description":"
Ventspils fili\u0101le - darbdien\u0101s 9:00-18:00,\r\nsestdien\u0101s 9:00-13:00,\r\nsv\u0113tdien\u0101s br\u012bvs
Izmaksas autom\u0101ts - neierobe\u017eots darba laiks
Iemaksas autom\u0101ts - darbdien\u0101s: 9:00 - 17:00

Ventspils, Kuld\u012bgas iela 25a,\r\nt\u0101lr. 67444444\r\nfakss 67448438;  67448441
"},{"type":"fco","id":["74","566"],"name":"Smiltenes fili\u0101le,Izmaksas autom\u0101ts","address":"Smiltene, Bazn\u012bcas lauk.2, \r\nt\u0101lr. 67444444\r\nfakss 67448569","city":"Smiltene","lat":"57.4247","lng":"25.9016","description":"
Smiltenes fili\u0101le - darbdien\u0101s 9:00-17:00\r\n\r\n
Izmaksas autom\u0101ts - neierobe\u017eots darba laiks

Smiltene, Bazn\u012bcas lauk.2, \r\nt\u0101lr. 67444444\r\nfakss 67448569
"},{"type":"fcico","id":["77","551","727"],"name":"Valmieras fili\u0101le,Izmaksas autom\u0101ts,Iemaksas autom\u0101ts","address":"Valmiera, R\u012bgas iela 15,\r\nt\u0101lr. 67444444\r\nfakss 67448354; 67448353","city":"Valmiera","lat":"57.5382","lng":"25.4189","description":"
Valmieras fili\u0101le - darbdien\u0101s 9:00-17:00
Izmaksas autom\u0101ts - neierobe\u017eots darba laiks
Iemaksas autom\u0101ts - darbdien\u0101s: 9:00 - 17:00

Valmiera, R\u012bgas iela 15,\r\nt\u0101lr. 67444444\r\nfakss 67448354; 67448353
"},{"type":"fco","id":["71","541"],"name":"R\u016bjienas fili\u0101le,Izmaksas autom\u0101ts","address":"R\u016bjiena, R\u012bgas iela 2,\r\nt\u0101lr.: 67444444\r\nfakss: 67448559\r\n","city":"R\u016bjiena","lat":"57.8967","lng":"25.331","description":"
R\u016bjienas fili\u0101le - darbdien\u0101s 9:00-17:00
Izmaksas autom\u0101ts - neierobe\u017eots darba laiks

R\u016bjiena, R\u012bgas iela 2,\r\nt\u0101lr.: 67444444\r\nfakss: 67448559\r\n
"},{"type":"co","id":["560","559","558","804"],"name":"Izmaksas autom\u0101ts","address":"Ventspils, Lielais prospekts 9","city":"Ventspils","lat":"0","lng":"0","description":"
Izmaksas autom\u0101ts - neierobe\u017eots darba laiks

Ventspils, Lielais prospekts 9
"},{"type":"co","id":["603"],"name":"Izmaksas autom\u0101ts","address":"R\u012bgas raj, Bab\u012btes pag, Pi\u0146\u0137i, Rigas iela 5","city":"Pi\u0146\u0137i","lat":"52.0206","lng":"17.0478","description":"
Izmaksas autom\u0101ts - neierobe\u017eots darba laiks

R\u012bgas raj, Bab\u012btes pag, Pi\u0146\u0137i, Rigas iela 5
"},{"type":"co","id":["492"],"name":"Izmaksas autom\u0101ts","address":"Daugavpils, Viestura iela 60","city":"Daugavpils","lat":"55.8723","lng":"26.5235","description":"
Izmaksas autom\u0101ts - neierobe\u017eots darba laiks

Daugavpils, Viestura iela 60
"},{"type":"cico","id":["498","623","702"],"name":"Izmaksas autom\u0101ts,Iemaksas autom\u0101ts","address":"Daugavpils, Cietok\u0161\u0146a iela 60","city":"Daugavpils","lat":"55.8736","lng":"26.5172","description":"
Izmaksas autom\u0101ts - neierobe\u017eots darba laiks
Iemaksas autom\u0101ts - T\/C darba laik\u0101

Daugavpils, Cietok\u0161\u0146a iela 60
"},{"type":"co","id":["646"],"name":"Izmaksas autom\u0101ts","address":"18. Novembra iela 136","city":"Daugavpils ","lat":"55.8775","lng":"26.5511","description":"
Izmaksas autom\u0101ts - neierobe\u017eots darba laiks

18. Novembra iela 136
"},{"type":"co","id":["493"],"name":"Izmaksas autom\u0101ts","address":"Daugavpils, Str\u0101dnieku iela 103","city":"Daugavpils","lat":"55.8791","lng":"26.5566","description":"
Izmaksas autom\u0101ts - neierobe\u017eots darba laiks

Daugavpils, Str\u0101dnieku iela 103
"},{"type":"co","id":["497"],"name":"Izmaksas autom\u0101ts","address":"Daugavpils, Smil\u0161u iela 98a","city":"Daugavpils","lat":"55.8888","lng":"26.5528","description":"
Izmaksas autom\u0101ts - neierobe\u017eots darba laiks

Daugavpils, Smil\u0161u iela 98a
"},{"type":"co","id":["638"],"name":"Izmaksas autom\u0101ts","address":"Daugavpils, Arhitektu iela 3","city":"Daugavpils","lat":"55.8918","lng":"26.5607","description":"
Izmaksas autom\u0101ts - neierobe\u017eots darba laiks

Daugavpils, Arhitektu iela 3
"},{"type":"co","id":["639"],"name":"Izmaksas autom\u0101ts","address":"Daugavpils, \u0160aura iela 31","city":"Daugavpils","lat":"55.8942","lng":"26.5467","description":"
Izmaksas autom\u0101ts - neierobe\u017eots darba laiks

Daugavpils, \u0160aura iela 31
"},{"type":"co","id":["581"],"name":"Izmaksas autom\u0101ts","address":"Kr\u0101slava, Vien\u012bbas iela 57","city":"Kr\u0101slava","lat":"55.895","lng":"27.1819","description":"
Izmaksas autom\u0101ts - neierobe\u017eots darba laiks

Kr\u0101slava, Vien\u012bbas iela 57
"},{"type":"co","id":["622"],"name":"Izmaksas autom\u0101ts","address":"Daugavpils, Raipoles iela 11a","city":"Daugavpils","lat":"55.8998","lng":"26.5293","description":"
Izmaksas autom\u0101ts - neierobe\u017eots darba laiks

Daugavpils, Raipoles iela 11a
"},{"type":"co","id":["504"],"name":"Izmaksas autom\u0101ts","address":"Il\u016bkste, Pilskalnes iela 2a","city":"Il\u016bkste","lat":"55.9772","lng":"26.296","description":"
Izmaksas autom\u0101ts - neierobe\u017eots darba laiks

Il\u016bkste, Pilskalnes iela 2a
"},{"type":"co","id":["636"],"name":"Izmaksas autom\u0101ts","address":"Dagda, Daugavpils iela 8a","city":"Dagda","lat":"56.0959","lng":"27.5352","description":"
Izmaksas autom\u0101ts - neierobe\u017eots darba laiks

Dagda, Daugavpils iela 8a
"},{"type":"co","id":["526"],"name":"Izmaksas autom\u0101ts","address":"Nereta, Pasta iela 3","city":"Nereta","lat":"56.203","lng":"25.2984","description":"
Izmaksas autom\u0101ts - neierobe\u017eots darba laiks

Nereta, Pasta iela 3
"},{"type":"co","id":["571"],"name":"Izmaksas autom\u0101ts","address":"Prei\u013ci, Aglonas iela 27","city":"Prei\u013ci","lat":"56.2918","lng":"26.7302","description":"
Izmaksas autom\u0101ts - neierobe\u017eots darba laiks

Prei\u013ci, Aglonas iela 27
"},{"type":"co","id":["591"],"name":"Izmaksas autom\u0101ts","address":"L\u012bv\u0101ni, Domes iela 4","city":"L\u012bv\u0101ni","lat":"56.3558","lng":"26.1762","description":"
Izmaksas autom\u0101ts - neierobe\u017eots darba laiks

L\u012bv\u0101ni, Domes iela 4
"},{"type":"co","id":["485"],"name":"Izmaksas autom\u0101ts","address":"Bauska, Pionieru iela 2","city":"Bauska","lat":"56.405","lng":"24.1907","description":"
Izmaksas autom\u0101ts - neierobe\u017eots darba laiks

Bauska, Pionieru iela 2
"},{"type":"co","id":["647"],"name":"Izmaksas autom\u0101ts","address":"Eleja, Lietuvas iela 28","city":"Eleja","lat":"56.4174","lng":"23.6861","description":"
Izmaksas autom\u0101ts - neierobe\u017eots darba laiks

Eleja, Lietuvas iela 28
"},{"type":"co","id":["642"],"name":"Izmaksas autom\u0101ts","address":"Vai\u0146ode, Rai\u0146a iela 4","city":"Vai\u0146ode","lat":"56.4187","lng":"21.8527","description":"
Izmaksas autom\u0101ts - neierobe\u017eots darba laiks

Vai\u0146ode, Rai\u0146a iela 4
"},{"type":"co","id":["618"],"name":"Izmaksas autom\u0101ts","address":"Galven\u0101 iela 1","city":"Priekule","lat":"56.4469","lng":"21.5924","description":"
Izmaksas autom\u0101ts - neierobe\u017eots darba laiks

Galven\u0101 iela 1
"},{"type":"co","id":["528"],"name":"Izmaksas autom\u0101ts","address":"Liep\u0101ja, Gan\u012bbu iela 175\/177","city":"Liep\u0101ja","lat":"56.4865","lng":"21.0165","description":"
Izmaksas autom\u0101ts - neierobe\u017eots darba laiks

Liep\u0101ja, Gan\u012bbu iela 175\/177
"},{"type":"co","id":["609"],"name":"Izmaksas autom\u0101ts","address":"Liep\u0101ja, Klaip\u0113das iela 104c","city":"Liep\u0101ja","lat":"56.4879","lng":"21.0057","description":"
Izmaksas autom\u0101ts - neierobe\u017eots darba laiks

Liep\u0101ja, Klaip\u0113das iela 104c
"},{"type":"co","id":["523"],"name":"Izmaksas autom\u0101ts","address":"Liep\u0101ja, Kur\u0161u laukums 11","city":"Liep\u0101ja","lat":"56.4893","lng":"21.0116","description":"
Izmaksas autom\u0101ts - neierobe\u017eots darba laiks

Liep\u0101ja, Kur\u0161u laukums 11
"},{"type":"co","id":["507"],"name":"Izmaksas autom\u0101ts","address":"J\u0113kabpils, Viestura iela 34a","city":"J\u0113kabpils","lat":"56.4901","lng":"25.8652","description":"
Izmaksas autom\u0101ts - neierobe\u017eots darba laiks

J\u0113kabpils, Viestura iela 34a
"},{"type":"cico","id":["567","706"],"name":"Izmaksas autom\u0101ts,Iemaksas autom\u0101ts","address":"J\u0113kabpils, Vien\u012bbas iela 7","city":"J\u0113kabpils","lat":"56.4962","lng":"25.8776","description":"
Izmaksas autom\u0101ts - neierobe\u017eots darba laiks
Iemaksas autom\u0101ts - pieejams veikala darba laik\u0101

J\u0113kabpils, Vien\u012bbas iela 7
"},{"type":"co","id":["539"],"name":"Izmaksas autom\u0101ts","address":"R\u0113zekne, Latgales iela 17","city":"R\u0113zekne","lat":"56.4998","lng":"27.3298","description":"
Izmaksas autom\u0101ts - neierobe\u017eots darba laiks

R\u0113zekne, Latgales iela 17
"},{"type":"co","id":["611"],"name":"Izmaksas autom\u0101ts","address":"B\u0101rtas iela 11","city":"N\u012bca","lat":"56.5007","lng":"21.0086","description":"
Izmaksas autom\u0101ts - neierobe\u017eots darba laiks

B\u0101rtas iela 11
"},{"type":"co","id":["648"],"name":"Izmaksas autom\u0101ts","address":"Me\u017ea iela 9","city":"R\u0113zekne","lat":"56.5013","lng":"27.3633","description":"
Izmaksas autom\u0101ts - neierobe\u017eots darba laiks

Me\u017ea iela 9
"},{"type":"co","id":["509"],"name":"Izmaksas autom\u0101ts","address":"J\u0113kabpils, R\u012bgas iela 126","city":"J\u0113kabpils","lat":"56.5015","lng":"25.8755","description":"
Izmaksas autom\u0101ts - neierobe\u017eots darba laiks

J\u0113kabpils, R\u012bgas iela 126
"},{"type":"co","id":["538"],"name":"Izmaksas autom\u0101ts","address":"R\u0113zekne, Atbr\u012bvo\u0161anas aleja 98","city":"R\u0113zekne","lat":"56.5058","lng":"27.3305","description":"
Izmaksas autom\u0101ts - neierobe\u017eots darba laiks

R\u0113zekne, Atbr\u012bvo\u0161anas aleja 98
"},{"type":"co","id":["601"],"name":"Izmaksas autom\u0101ts","address":"Grobi\u0146a, Liel\u0101 iela 74","city":"Grobi\u0146a","lat":"56.5076","lng":"21.0103","description":"
Izmaksas autom\u0101ts - neierobe\u017eots darba laiks

Grobi\u0146a, Liel\u0101 iela 74
"},{"type":"co","id":["525"],"name":"Izmaksas autom\u0101ts","address":"Liep\u0101ja, Liel\u0101 iela 13","city":"Liep\u0101ja","lat":"56.5076","lng":"21.0104","description":"
Izmaksas autom\u0101ts - neierobe\u017eots darba laiks

Liep\u0101ja, Liel\u0101 iela 13
"},{"type":"co","id":["573"],"name":"Izmaksas autom\u0101ts","address":"Liep\u0101ja, K\u0101r\u013ca Z\u0101les laukums 8","city":"Liep\u0101ja","lat":"56.5121","lng":"21.0187","description":"
Izmaksas autom\u0101ts - neierobe\u017eots darba laiks

Liep\u0101ja, K\u0101r\u013ca Z\u0101les laukums 8
"},{"type":"cico","id":["524","724"],"name":"Izmaksas autom\u0101ts,Iemaksas autom\u0101ts","address":"Liep\u0101ja, Jaun\u0101 Ostmala 3\/5","city":"Liep\u0101ja","lat":"56.5137","lng":"21.0146","description":"
Izmaksas autom\u0101ts - neierobe\u017eots darba laiks
Iemaksas autom\u0101ts - pieejams T\/C darba laik\u0101

Liep\u0101ja, Jaun\u0101 Ostmala 3\/5
"},{"type":"co","id":["540"],"name":"Izmaksas autom\u0101ts","address":"R\u0113zekne, Kr. Valdem\u0101ra iela 16\/1","city":"R\u0113zekne","lat":"56.5139","lng":"27.3371","description":"
Izmaksas autom\u0101ts - neierobe\u017eots darba laiks

R\u0113zekne, Kr. Valdem\u0101ra iela 16\/1
"},{"type":"co","id":["607"],"name":"Izmaksas autom\u0101ts","address":"R\u0113zekne, Atmodas iela 6\/1","city":"R\u0113zekne","lat":"56.5248","lng":"27.3512","description":"
Izmaksas autom\u0101ts - neierobe\u017eots darba laiks

R\u0113zekne, Atmodas iela 6\/1
"},{"type":"co","id":["537"],"name":"Izmaksas autom\u0101ts","address":"R\u0113zekne, Atbr\u012bvo\u0161anas aleja 174a","city":"R\u0113zekne","lat":"56.5264","lng":"27.3431","description":"
Izmaksas autom\u0101ts - neierobe\u017eots darba laiks

R\u0113zekne, Atbr\u012bvo\u0161anas aleja 174a
"},{"type":"co","id":["633"],"name":"Izmaksas autom\u0101ts","address":"Dobeles raj, T\u0113rvetes pag, \"Ti\u0161as\"","city":"Kro\u0146auce","lat":"56.5334","lng":"23.0638","description":"
Izmaksas autom\u0101ts - neierobe\u017eots darba laiks

Dobeles raj, T\u0113rvetes pag, \"Ti\u0161as\"
"},{"type":"co","id":["588"],"name":"Izmaksas autom\u0101ts","address":"Ludza, Stacijas iela 30","city":"Ludza","lat":"56.5446","lng":"27.7205","description":"
Izmaksas autom\u0101ts - neierobe\u017eots darba laiks

Ludza, Stacijas iela 30
"},{"type":"co","id":["608"],"name":"Izmaksas autom\u0101ts","address":"Liep\u0101ja, Slimnicas iela 25","city":"Liep\u0101ja","lat":"56.5518","lng":"21.099","description":"
Izmaksas autom\u0101ts - neierobe\u017eots darba laiks

Liep\u0101ja, Slimnicas iela 25
"},{"type":"co","id":["503"],"name":"Izmaksas autom\u0101ts","address":"Bauskas raj., Iecavas pag., Ed.Virzas iela 21b","city":"Iecava","lat":"56.5981","lng":"24.2021","description":"
Izmaksas autom\u0101ts - neierobe\u017eots darba laiks

Bauskas raj., Iecavas pag., Ed.Virzas iela 21b
"},{"type":"co","id":["556"],"name":"Izmaksas autom\u0101ts","address":"Vecumnieki, R\u012bgas iela 24b","city":"Vecumnieki","lat":"56.6058","lng":"24.5221","description":"
Izmaksas autom\u0101ts - neierobe\u017eots darba laiks

Vecumnieki, R\u012bgas iela 24b
"},{"type":"co","id":["494"],"name":"Izmaksas autom\u0101ts","address":"Aizkraukle, Gaismas iela 22","city":"Aizkraukle","lat":"56.6082","lng":"25.257","description":"
Izmaksas autom\u0101ts - neierobe\u017eots darba laiks

Aizkraukle, Gaismas iela 22
"},{"type":"co","id":["501"],"name":"Izmaksas autom\u0101ts","address":"Dobele, Za\u013c\u0101 iela 19","city":"Dobele","lat":"56.6196","lng":"23.2841","description":"
Izmaksas autom\u0101ts - neierobe\u017eots darba laiks

Dobele, Za\u013c\u0101 iela 19
"},{"type":"co","id":["500"],"name":"Izmaksas autom\u0101ts","address":"Dobele, Br\u012bv\u012bbas iela 15","city":"Dobele","lat":"56.6254","lng":"23.2808","description":"
Izmaksas autom\u0101ts - neierobe\u017eots darba laiks

Dobele, Br\u012bv\u012bbas iela 15
"},{"type":"co","id":["515"],"name":"Izmaksas autom\u0101ts","address":"Jelgava, Kato\u013cu iela 18","city":"Jelgava","lat":"56.648","lng":"23.7272","description":"
Izmaksas autom\u0101ts - neierobe\u017eots darba laiks

Jelgava, Kato\u013cu iela 18
"},{"type":"cico","id":["511","709"],"name":"Izmaksas autom\u0101ts,Iemaksas autom\u0101ts","address":"Jelgava, Driksas iela 4","city":"Jelgava","lat":"56.6506","lng":"23.7243","description":"
Izmaksas autom\u0101ts - neierobe\u017eots darba laiks
Iemaksas autom\u0101ts - pieejams t\/c darba laik\u0101

Jelgava, Driksas iela 4
"},{"type":"co","id":["512"],"name":"Izmaksas autom\u0101ts","address":"Jelgava, Matera iela 23\/25","city":"Jelgava","lat":"56.6508","lng":"23.7199","description":"
Izmaksas autom\u0101ts - neierobe\u017eots darba laiks

Jelgava, Matera iela 23\/25
"},{"type":"co","id":["510"],"name":"Izmaksas autom\u0101ts","address":"Jelgava, Uzvaras iela 12","city":"Jelgava","lat":"56.656","lng":"23.7221","description":"
Izmaksas autom\u0101ts - neierobe\u017eots darba laiks

Jelgava, Uzvaras iela 12
"},{"type":"co","id":["513"],"name":"Izmaksas autom\u0101ts","address":"Jelgava, Satiksmes iela 35","city":"Jelgava","lat":"56.6564","lng":"23.7003","description":"
Izmaksas autom\u0101ts - neierobe\u017eots darba laiks

Jelgava, Satiksmes iela 35
"},{"type":"co","id":["544"],"name":"Izmaksas autom\u0101ts","address":"Saldus, R\u012bgas iela 1","city":"Saldus","lat":"56.6632","lng":"22.4919","description":"
Izmaksas autom\u0101ts - neierobe\u017eots darba laiks

Saldus, R\u012bgas iela 1
"},{"type":"co","id":["629"],"name":"Izmaksas autom\u0101ts","address":"Saldus, Br\u012bv\u012bbas iela 30","city":"Saldus","lat":"56.6679","lng":"22.4906","description":"
Izmaksas autom\u0101ts - neierobe\u017eots darba laiks

Saldus, Br\u012bv\u012bbas iela 30
"},{"type":"co","id":["572"],"name":"Izmaksas autom\u0101ts","address":"Jelgava, P\u0113rnavas iela 4","city":"Jelgava","lat":"56.6681","lng":"23.7575","description":"
Izmaksas autom\u0101ts - neierobe\u017eots darba laiks

Jelgava, P\u0113rnavas iela 4
"},{"type":"co","id":["487"],"name":"Izmaksas autom\u0101ts","address":"Broc\u0113ni, Lielcieceres iela 1a","city":"Broc\u0113ni","lat":"56.6824","lng":"22.5666","description":"
Izmaksas autom\u0101ts - neierobe\u017eots darba laiks

Broc\u0113ni, Lielcieceres iela 1a
"},{"type":"cico","id":["621","712"],"name":"Izmaksas autom\u0101ts,Iemaksas autom\u0101ts","address":"Lielv\u0101rde, L\u0101\u010dpl\u0113\u0161a iela 14","city":"Lielv\u0101rde","lat":"56.7206","lng":"24.8075","description":"
Izmaksas autom\u0101ts - neierobe\u017eots darba laiks
Iemaksas autom\u0101ts - pieejams veikala darba laik\u0101

Lielv\u0101rde, L\u0101\u010dpl\u0113\u0161a iela 14
"},{"type":"co","id":["625"],"name":"Izmaksas autom\u0101ts","address":"K\u0101rsava, Vienibas iela 97","city":"K\u0101rsava","lat":"56.7842","lng":"27.6888","description":"
Izmaksas autom\u0101ts - neierobe\u017eots darba laiks

K\u0101rsava, Vienibas iela 97
"},{"type":"co","id":["533"],"name":"Izmaksas autom\u0101ts","address":"Olaine, R\u016bpn\u012bcu iela 4","city":"Olaine","lat":"56.7919","lng":"23.9612","description":"
Izmaksas autom\u0101ts - neierobe\u017eots darba laiks

Olaine, R\u016bpn\u012bcu iela 4
"},{"type":"co","id":["650"],"name":"Izmaksas autom\u0101ts","address":"Olaine, Vesel\u012bbas iela 1","city":"Olaine","lat":"56.7924","lng":"23.9562","description":"
Izmaksas autom\u0101ts - neierobe\u017eots darba laiks

Olaine, Vesel\u012bbas iela 1
"},{"type":"co","id":["565"],"name":"Izmaksas autom\u0101ts","address":"Ogre, Druvas iela 5","city":"Ogre","lat":"56.7965","lng":"24.6233","description":"
Izmaksas autom\u0101ts - neierobe\u017eots darba laiks

Ogre, Druvas iela 5
"},{"type":"co","id":["534"],"name":"Izmaksas autom\u0101ts","address":"Olaine, Vesel\u012bbas iela 1","city":"Olaine","lat":"56.7971","lng":"23.9543","description":"
Izmaksas autom\u0101ts - neierobe\u017eots darba laiks

Olaine, Vesel\u012bbas iela 1
"},{"type":"co","id":["637"],"name":"Izmaksas autom\u0101ts","address":"Olaine, Me\u017ea iela 2","city":"Olaine","lat":"56.7997","lng":"23.9889","description":"
Izmaksas autom\u0101ts - neierobe\u017eots darba laiks

Olaine, Me\u017ea iela 2
"},{"type":"co","id":["649"],"name":"Izmaksas autom\u0101ts","address":"R\u012bgas iela 8","city":"Talsi","lat":"56.8132","lng":"24.5966","description":"
Izmaksas autom\u0101ts - neierobe\u017eots darba laiks

R\u012bgas iela 8
"},{"type":"co","id":["531"],"name":"Izmaksas autom\u0101ts","address":"Ogre, Br\u012bv\u012bbas iela 11","city":"Ogre","lat":"56.8153","lng":"24.6273","description":"
Izmaksas autom\u0101ts - neierobe\u017eots darba laiks

Ogre, Br\u012bv\u012bbas iela 11
"},{"type":"co","id":["641"],"name":"Izmaksas autom\u0101ts","address":"Ogre, R\u012bgas iela 23","city":"Ogre","lat":"56.816","lng":"24.5894","description":"
Izmaksas autom\u0101ts - neierobe\u017eots darba laiks

Ogre, R\u012bgas iela 23
"},{"type":"co","id":["532"],"name":"Izmaksas autom\u0101ts","address":"Ogre, M\u0101lkalnes prospekts 3","city":"Ogre","lat":"56.8217","lng":"24.5958","description":"
Izmaksas autom\u0101ts - neierobe\u017eots darba laiks

Ogre, M\u0101lkalnes prospekts 3
"},{"type":"co","id":["575"],"name":"Izmaksas autom\u0101ts","address":"Ogre, Mednieku iela 23","city":"Ogre","lat":"56.8258","lng":"24.6032","description":"
Izmaksas autom\u0101ts - neierobe\u017eots darba laiks

Ogre, Mednieku iela 23
"},{"type":"co","id":["505"],"name":"Izmaksas autom\u0101ts","address":"Ik\u0161\u0137ile, Skolas iela 4a","city":"Ik\u0161\u0137ile","lat":"56.8348","lng":"24.4976","description":"
Izmaksas autom\u0101ts - neierobe\u017eots darba laiks

Ik\u0161\u0137ile, Skolas iela 4a
"},{"type":"co","id":["592"],"name":"Izmaksas autom\u0101ts","address":"Madliena","city":"Madliena","lat":"56.8452","lng":"25.1546","description":"
Izmaksas autom\u0101ts - neierobe\u017eots darba laiks

Madliena
"},{"type":"co","id":["530"],"name":"Izmaksas autom\u0101ts","address":"Madona, J.Poruka iela 3b","city":"Madona","lat":"56.8507","lng":"26.218","description":"
Izmaksas autom\u0101ts - neierobe\u017eots darba laiks

Madona, J.Poruka iela 3b
"},{"type":"co","id":["635"],"name":"Izmaksas autom\u0101ts","address":"Madona, Saules iela 6","city":"Madona","lat":"56.8521","lng":"26.221","description":"
Izmaksas autom\u0101ts - neierobe\u017eots darba laiks

Madona, Saules iela 6
"},{"type":"co","id":["542"],"name":"Izmaksas autom\u0101ts","address":"Salaspils, R\u012bgas iela 1","city":"Salaspils","lat":"56.8526","lng":"24.3383","description":"
Izmaksas autom\u0101ts - neierobe\u017eots darba laiks

Salaspils, R\u012bgas iela 1
"},{"type":"co","id":["529"],"name":"Izmaksas autom\u0101ts","address":"Madona, Saules iela 16","city":"Madona","lat":"56.8606","lng":"26.2281","description":"
Izmaksas autom\u0101ts - neierobe\u017eots darba laiks

Madona, Saules iela 16
"},{"type":"co","id":["574"],"name":"Izmaksas autom\u0101ts","address":"Jaunm\u0101rupe, Mazcenu aleja 5\/1","city":"Jaunm\u0101rupe","lat":"56.8754","lng":"23.9386","description":"
Izmaksas autom\u0101ts - neierobe\u017eots darba laiks

Jaunm\u0101rupe, Mazcenu aleja 5\/1
"},{"type":"co","id":["631"],"name":"Izmaksas autom\u0101ts","address":"Balo\u017ei, R\u012bgas iela 14","city":"Balo\u017ei","lat":"56.8768","lng":"24.1218","description":"
Izmaksas autom\u0101ts - neierobe\u017eots darba laiks

Balo\u017ei, R\u012bgas iela 14
"},{"type":"co","id":["600"],"name":"Izmaksas autom\u0101ts","address":"\u0112rg\u013ci, R\u012bgas iela 26","city":"\u0112rg\u013ci","lat":"56.8966","lng":"25.636","description":"
Izmaksas autom\u0101ts - neierobe\u017eots darba laiks

\u0112rg\u013ci, R\u012bgas iela 26
"},{"type":"co","id":["462"],"name":"Izmaksas autom\u0101ts","address":"Maskavas iela 400","city":"R\u012bga","lat":"56.897","lng":"24.2103","description":"
Izmaksas autom\u0101ts - neierobe\u017eots darba laiks

Maskavas iela 400
"},{"type":"co","id":["468"],"name":"Izmaksas autom\u0101ts","address":"Maskavas iela 427b","city":"R\u012bga","lat":"56.8979","lng":"24.2084","description":"
Izmaksas autom\u0101ts - neierobe\u017eots darba laiks

Maskavas iela 427b
"},{"type":"co","id":["374"],"name":"Izmaksas autom\u0101ts","address":"Valde\u0137u iela 56","city":"R\u012bga","lat":"56.9032","lng":"24.0933","description":"
Izmaksas autom\u0101ts - neierobe\u017eots darba laiks

Valde\u0137u iela 56
"},{"type":"co","id":["469"],"name":"Izmaksas autom\u0101ts","address":"Maskavas iela 357","city":"R\u012bga","lat":"56.9046","lng":"24.1907","description":"
Izmaksas autom\u0101ts - neierobe\u017eots darba laiks

Maskavas iela 357
"},{"type":"co","id":["466"],"name":"Izmaksas autom\u0101ts","address":"Krustpils iela 119","city":"R\u012bga","lat":"56.9055","lng":"24.2159","description":"
Izmaksas autom\u0101ts - neierobe\u017eots darba laiks

Krustpils iela 119
"},{"type":"co","id":["378"],"name":"Izmaksas autom\u0101ts","address":"Vien\u012bbas gatve 111, 113","city":"R\u012bga","lat":"56.9079","lng":"24.0843","description":"
Izmaksas autom\u0101ts - neierobe\u017eots darba laiks

Vien\u012bbas gatve 111, 113
"},{"type":"co","id":["376"],"name":"Izmaksas autom\u0101ts","address":"Vien\u012bbas gatve 144","city":"R\u012bga","lat":"56.9109","lng":"24.0863","description":"
Izmaksas autom\u0101ts - neierobe\u017eots darba laiks

Vien\u012bbas gatve 144
"},{"type":"co","id":["377"],"name":"Izmaksas autom\u0101ts","address":"Bauskas iela 180","city":"R\u012bga","lat":"56.912","lng":"24.1446","description":"
Izmaksas autom\u0101ts - neierobe\u017eots darba laiks

Bauskas iela 180
"},{"type":"co","id":["375"],"name":"Izmaksas autom\u0101ts","address":"Valde\u0137u iela 33","city":"R\u012bga","lat":"56.9122","lng":"24.0956","description":"
Izmaksas autom\u0101ts - neierobe\u017eots darba laiks

Valde\u0137u iela 33
"},{"type":"co","id":["467"],"name":"Izmaksas autom\u0101ts","address":"Maskavas iela 240","city":"R\u012bga","lat":"56.9175","lng":"24.1735","description":"
Izmaksas autom\u0101ts - neierobe\u017eots darba laiks

Maskavas iela 240
"},{"type":"co","id":["387"],"name":"Izmaksas autom\u0101ts","address":"M\u016bkusalas iela 73","city":"R\u012bga","lat":"56.9215","lng":"24.1082","description":"
Izmaksas autom\u0101ts - neierobe\u017eots darba laiks

M\u016bkusalas iela 73
"},{"type":"co","id":["359"],"name":"Izmaksas autom\u0101ts","address":"Renc\u0113nu iela 1","city":"R\u012bga","lat":"56.9224","lng":"24.2173","description":"
Izmaksas autom\u0101ts - neierobe\u017eots darba laiks

Renc\u0113nu iela 1
"},{"type":"co","id":["443"],"name":"Izmaksas autom\u0101ts","address":"Lucavsalas 3","city":"R\u012bga","lat":"56.9231","lng":"24.1276","description":"
Izmaksas autom\u0101ts - neierobe\u017eots darba laiks

Lucavsalas 3
"},{"type":"co","id":["383"],"name":"Izmaksas autom\u0101ts","address":"Upesgr\u012bvas iela 1","city":"R\u012bga","lat":"56.9266","lng":"24.0397","description":"
Izmaksas autom\u0101ts - neierobe\u017eots darba laiks

Upesgr\u012bvas iela 1
"},{"type":"co","id":["438"],"name":"Izmaksas autom\u0101ts","address":"M\u016bkusalas iela 71","city":"R\u012bga","lat":"56.9276","lng":"24.1053","description":"
Izmaksas autom\u0101ts - neierobe\u017eots darba laiks

M\u016bkusalas iela 71
"},{"type":"cico","id":["480","674"],"name":"Izmaksas autom\u0101ts,Iemaksas autom\u0101ts","address":"K. Ulma\u0146a gatve 88","city":"R\u012bga","lat":"56.9282","lng":"24.0239","description":"
Izmaksas autom\u0101ts - neierobe\u017eots darba laiks
Iemaksas autom\u0101ts - darbdien\u0101s 8:00-22:00\r\nbr\u012bvdien\u0101s: 8:00 - 22:00

K. Ulma\u0146a gatve 88
"},{"type":"co","id":["461"],"name":"Izmaksas autom\u0101ts","address":"Zilupes iela 7","city":"R\u012bga","lat":"56.9286","lng":"24.1676","description":"
Izmaksas autom\u0101ts - neierobe\u017eots darba laiks

Zilupes iela 7
"},{"type":"co","id":["478"],"name":"Izmaksas autom\u0101ts","address":"\u0160amp\u0113tera iela 180","city":"R\u012bga","lat":"56.9301","lng":"24.0143","description":"
Izmaksas autom\u0101ts - neierobe\u017eots darba laiks

\u0160amp\u0113tera iela 180
"},{"type":"co","id":["394","393"],"name":"Izmaksas autom\u0101ts","address":"Lielirbes iela 29","city":"R\u012bga","lat":"56.9302","lng":"24.0354","description":"
Izmaksas autom\u0101ts - neierobe\u017eots darba laiks

Lielirbes iela 29
"},{"type":"co","id":["373"],"name":"Izmaksas autom\u0101ts","address":"\u0160amp\u0113tera iela 36","city":"R\u012bga","lat":"56.9303","lng":"24.0141","description":"
Izmaksas autom\u0101ts - neierobe\u017eots darba laiks

\u0160amp\u0113tera iela 36
"},{"type":"co","id":["397"],"name":"Izmaksas autom\u0101ts","address":"Lub\u0101nas iela 64","city":"R\u012bga","lat":"56.9307","lng":"24.1837","description":"
Izmaksas autom\u0101ts - neierobe\u017eots darba laiks

Lub\u0101nas iela 64
"},{"type":"co","id":["395"],"name":"Izmaksas autom\u0101ts","address":"Jaunmoku iela 13","city":"R\u012bga","lat":"56.9308","lng":"24.0375","description":"
Izmaksas autom\u0101ts - neierobe\u017eots darba laiks

Jaunmoku iela 13
"},{"type":"co","id":["388"],"name":"Izmaksas autom\u0101ts","address":"M\u016bkusalas iela 51","city":"R\u012bga","lat":"56.9313","lng":"24.1062","description":"
Izmaksas autom\u0101ts - neierobe\u017eots darba laiks

M\u016bkusalas iela 51
"},{"type":"co","id":["369"],"name":"Izmaksas autom\u0101ts","address":"R\u0113zeknes iela 3","city":"R\u012bga","lat":"56.935","lng":"24.1828","description":"
Izmaksas autom\u0101ts - neierobe\u017eots darba laiks

R\u0113zeknes iela 3
"},{"type":"co","id":["361"],"name":"Izmaksas autom\u0101ts","address":"Maz\u0101 Nomet\u0146u iela 27","city":"R\u012bga","lat":"56.9359","lng":"24.0669","description":"
Izmaksas autom\u0101ts - neierobe\u017eots darba laiks

Maz\u0101 Nomet\u0146u iela 27
"},{"type":"co","id":["362"],"name":"Izmaksas autom\u0101ts","address":"Uzvaras bulv\u0101ris 2\/4","city":"R\u012bga","lat":"56.937","lng":"24.0877","description":"
Izmaksas autom\u0101ts - neierobe\u017eots darba laiks

Uzvaras bulv\u0101ris 2\/4
"},{"type":"co","id":["386"],"name":"Izmaksas autom\u0101ts","address":"Lomonosova iela 6","city":"R\u012bga","lat":"56.9376","lng":"24.1563","description":"
Izmaksas autom\u0101ts - neierobe\u017eots darba laiks

Lomonosova iela 6
"},{"type":"co","id":["399"],"name":"Izmaksas autom\u0101ts","address":"Saharova iela 23a","city":"R\u012bga","lat":"56.9391","lng":"24.2037","description":"
Izmaksas autom\u0101ts - neierobe\u017eots darba laiks

Saharova iela 23a
"},{"type":"co","id":["396"],"name":"Izmaksas autom\u0101ts","address":"Saharova iela 2","city":"R\u012bga","lat":"56.9392","lng":"24.2041","description":"
Izmaksas autom\u0101ts - neierobe\u017eots darba laiks

Saharova iela 2
"},{"type":"co","id":["400"],"name":"Izmaksas autom\u0101ts","address":"Saharova iela 20a","city":"R\u012bga","lat":"56.9404","lng":"24.2047","description":"
Izmaksas autom\u0101ts - neierobe\u017eots darba laiks

Saharova iela 20a
"},{"type":"co","id":["385"],"name":"Izmaksas autom\u0101ts","address":"Elijas iela 17","city":"R\u012bga","lat":"56.9405","lng":"24.1252","description":"
Izmaksas autom\u0101ts - neierobe\u017eots darba laiks

Elijas iela 17
"},{"type":"co","id":["479"],"name":"Izmaksas autom\u0101ts","address":"K. Ulma\u0146a gatve 122","city":"R\u012bga","lat":"56.9407","lng":"23.9991","description":"
Izmaksas autom\u0101ts - neierobe\u017eots darba laiks

K. Ulma\u0146a gatve 122
"},{"type":"co","id":["354"],"name":"Izmaksas autom\u0101ts","address":"Pr\u0101gas iela 2","city":"R\u012bga","lat":"56.9446","lng":"24.1167","description":"
Izmaksas autom\u0101ts - neierobe\u017eots darba laiks

Pr\u0101gas iela 2
"},{"type":"co","id":["360"],"name":"Izmaksas autom\u0101ts","address":"Kalnciema iela 17a","city":"R\u012bga","lat":"56.945","lng":"24.0723","description":"
Izmaksas autom\u0101ts - neierobe\u017eots darba laiks

Kalnciema iela 17a
"},{"type":"co","id":["380"],"name":"Izmaksas autom\u0101ts","address":"A.Biezi\u0146a iela 8","city":"R\u012bga","lat":"56.9452","lng":"24.022","description":"
Izmaksas autom\u0101ts - neierobe\u017eots darba laiks

A.Biezi\u0146a iela 8
"},{"type":"co","id":["429"],"name":"Izmaksas autom\u0101ts","address":"Pr\u0101gas iela 1","city":"R\u012bga","lat":"56.9452","lng":"24.1152","description":"
Izmaksas autom\u0101ts - neierobe\u017eots darba laiks

Pr\u0101gas iela 1
"},{"type":"co","id":["425"],"name":"Izmaksas autom\u0101ts","address":"13. Janv\u0101ra iela 8","city":"R\u012bga","lat":"56.9457","lng":"24.1148","description":"
Izmaksas autom\u0101ts - neierobe\u017eots darba laiks

13. Janv\u0101ra iela 8
"},{"type":"co","id":["614"],"name":"Izmaksas autom\u0101ts","address":"R\u012bgas rajons, S\u0113jas novads, \"J\u0113\u0146i\"","city":"S\u0113ja","lat":"56.9465","lng":"24.1049","description":"
Izmaksas autom\u0101ts - neierobe\u017eots darba laiks

R\u012bgas rajons, S\u0113jas novads, \"J\u0113\u0146i\"
"},{"type":"co","id":["460"],"name":"Izmaksas autom\u0101ts","address":"Stacijas laukums 2","city":"R\u012bga","lat":"56.9468","lng":"24.1202","description":"
Izmaksas autom\u0101ts - neierobe\u017eots darba laiks

Stacijas laukums 2
"},{"type":"co","id":["444"],"name":"Izmaksas autom\u0101ts","address":"Stacijas laukums 2","city":"R\u012bga","lat":"56.9469","lng":"24.1193","description":"
Izmaksas autom\u0101ts - neierobe\u017eots darba laiks

Stacijas laukums 2
"},{"type":"co","id":["453"],"name":"Izmaksas autom\u0101ts","address":"Stacijas laukums 2","city":"R\u012bga","lat":"56.9471","lng":"24.1198","description":"
Izmaksas autom\u0101ts - neierobe\u017eots darba laiks

Stacijas laukums 2
"},{"type":"co","id":["436"],"name":"Izmaksas autom\u0101ts","address":"Aud\u0113ju iela 16","city":"R\u012bga","lat":"56.9475","lng":"24.1132","description":"
Izmaksas autom\u0101ts - neierobe\u017eots darba laiks

Aud\u0113ju iela 16
"},{"type":"co","id":["379"],"name":"Izmaksas autom\u0101ts","address":"P.Leji\u0146a iela 2","city":"R\u012bga","lat":"56.9476","lng":"24.0187","description":"
Izmaksas autom\u0101ts - neierobe\u017eots darba laiks

P.Leji\u0146a iela 2
"},{"type":"co","id":["398"],"name":"Izmaksas autom\u0101ts","address":"Deglava iela 110","city":"R\u012bga","lat":"56.9479","lng":"24.1931","description":"
Izmaksas autom\u0101ts - neierobe\u017eots darba laiks

Deglava iela 110
"},{"type":"co","id":["519"],"name":"Izmaksas autom\u0101ts","address":"\u0136ekava, Gaismas iela 17","city":"\u0136ekava","lat":"56.9486","lng":"24.1803","description":"
Izmaksas autom\u0101ts - neierobe\u017eots darba laiks

\u0136ekava, Gaismas iela 17
"},{"type":"co","id":["495"],"name":"Izmaksas autom\u0101ts","address":"R\u012bgas rajons, Stopi\u0146u pag, \"Melnais suns\"","city":"L\u012b\u010di","lat":"56.9486","lng":"24.3604","description":"
Izmaksas autom\u0101ts - neierobe\u017eots darba laiks

R\u012bgas rajons, Stopi\u0146u pag, \"Melnais suns\"
"},{"type":"co","id":["420"],"name":"Izmaksas autom\u0101ts","address":"Tirgo\u0146u iela 11","city":"R\u012bga","lat":"56.9487","lng":"24.1065","description":"
Izmaksas autom\u0101ts - neierobe\u017eots darba laiks

Tirgo\u0146u iela 11
"},{"type":"co","id":["406"],"name":"Izmaksas autom\u0101ts","address":"Deglava iela 67","city":"R\u012bga","lat":"56.9488","lng":"24.187","description":"
Izmaksas autom\u0101ts - neierobe\u017eots darba laiks

Deglava iela 67
"},{"type":"co","id":["434"],"name":"Izmaksas autom\u0101ts","address":"Marijas iela 8","city":"R\u012bga","lat":"56.9494","lng":"24.1231","description":"
Izmaksas autom\u0101ts - neierobe\u017eots darba laiks

Marijas iela 8
"},{"type":"co","id":["474"],"name":"Izmaksas autom\u0101ts","address":"\u0100zenes iela 5","city":"R\u012bga","lat":"56.9495","lng":"24.081","description":"
Izmaksas autom\u0101ts - neierobe\u017eots darba laiks

\u0100zenes iela 5
"},{"type":"co","id":["424"],"name":"Izmaksas autom\u0101ts","address":"Ka\u013c\u0137u iel\u0101 26 (Va\u013c\u0146u pus\u0113)","city":"R\u012bga","lat":"56.9497","lng":"24.111","description":"
Izmaksas autom\u0101ts - neierobe\u017eots darba laiks

Ka\u013c\u0137u iel\u0101 26 (Va\u013c\u0146u pus\u0113)
"},{"type":"co","id":["423"],"name":"Izmaksas autom\u0101ts","address":"Ka\u013c\u0137u iela 26","city":"R\u012bga","lat":"56.9498","lng":"24.111","description":"
Izmaksas autom\u0101ts - neierobe\u017eots darba laiks

Ka\u013c\u0137u iela 26
"},{"type":"co","id":["426"],"name":"Izmaksas autom\u0101ts","address":"L\u0101\u010dpl\u0113\u0161a iela 70b","city":"R\u012bga","lat":"56.9502","lng":"24.1324","description":"
Izmaksas autom\u0101ts - neierobe\u017eots darba laiks

L\u0101\u010dpl\u0113\u0161a iela 70b
"},{"type":"co","id":["448"],"name":"Izmaksas autom\u0101ts","address":"P\u0113rnavas iela 78","city":"R\u012bga","lat":"56.9505","lng":"24.1538","description":"
Izmaksas autom\u0101ts - neierobe\u017eots darba laiks

P\u0113rnavas iela 78
"},{"type":"co","id":["358"],"name":"Izmaksas autom\u0101ts","address":"N\u012bcgales iela 53","city":"R\u012bga","lat":"56.9508","lng":"24.1735","description":"
Izmaksas autom\u0101ts - neierobe\u017eots darba laiks

N\u012bcgales iela 53
"},{"type":"co","id":["422"],"name":"Izmaksas autom\u0101ts","address":"J\u0113kaba iela 11","city":"R\u012bga","lat":"56.9511","lng":"24.1052","description":"
Izmaksas autom\u0101ts - neierobe\u017eots darba laiks

J\u0113kaba iela 11
"},{"type":"co","id":["475"],"name":"Izmaksas autom\u0101ts","address":"\u0136\u012bpsalas iela 8","city":"R\u012bga","lat":"56.9516","lng":"24.0841","description":"
Izmaksas autom\u0101ts - neierobe\u017eots darba laiks

\u0136\u012bpsalas iela 8
"},{"type":"co","id":["401"],"name":"Izmaksas autom\u0101ts","address":"R. Blauma\u0146a iela 38\/40","city":"R\u012bga","lat":"56.9529","lng":"24.1247","description":"
Izmaksas autom\u0101ts - neierobe\u017eots darba laiks

R. Blauma\u0146a iela 38\/40
"},{"type":"co","id":["430"],"name":"Izmaksas autom\u0101ts","address":"Republikas laukums 2","city":"R\u012bga","lat":"56.953","lng":"24.0997","description":"
Izmaksas autom\u0101ts - neierobe\u017eots darba laiks

Republikas laukums 2
"},{"type":"co","id":["439"],"name":"Izmaksas autom\u0101ts","address":"Reimersa iela 1","city":"R\u012bga","lat":"56.9539","lng":"24.1117","description":"
Izmaksas autom\u0101ts - neierobe\u017eots darba laiks

Reimersa iela 1
"},{"type":"co","id":["445"],"name":"Izmaksas autom\u0101ts","address":"A. \u010caka iela 55","city":"R\u012bga","lat":"56.9545","lng":"24.1325","description":"
Izmaksas autom\u0101ts - neierobe\u017eots darba laiks

A. \u010caka iela 55
"},{"type":"co","id":["442","441"],"name":"Izmaksas autom\u0101ts","address":"Elizabetes iela 55","city":"R\u012bga","lat":"56.9546","lng":"24.118","description":"
Izmaksas autom\u0101ts - neierobe\u017eots darba laiks

Elizabetes iela 55
"},{"type":"co","id":["593"],"name":"Izmaksas autom\u0101ts","address":"Tukums, Zem\u012btes iela 2a","city":"Tukums","lat":"56.9555","lng":"23.1202","description":"
Izmaksas autom\u0101ts - neierobe\u017eots darba laiks

Tukums, Zem\u012btes iela 2a
"},{"type":"co","id":["403"],"name":"Izmaksas autom\u0101ts","address":"Dzelzavas iela 72","city":"R\u012bga","lat":"56.9562","lng":"24.1907","description":"
Izmaksas autom\u0101ts - neierobe\u017eots darba laiks

Dzelzavas iela 72
"},{"type":"co","id":["440"],"name":"Izmaksas autom\u0101ts","address":"A. \u010caka iela 73\/75","city":"R\u012bga","lat":"56.9563","lng":"24.1372","description":"
Izmaksas autom\u0101ts - neierobe\u017eots darba laiks

A. \u010caka iela 73\/75
"},{"type":"co","id":["363"],"name":"Izmaksas autom\u0101ts","address":"Dzirciema iela 31","city":"R\u012bga","lat":"56.9565","lng":"24.0524","description":"
Izmaksas autom\u0101ts - neierobe\u017eots darba laiks

Dzirciema iela 31
"},{"type":"co","id":["473"],"name":"Izmaksas autom\u0101ts","address":"T\u0113rbatas iela 40","city":"R\u012bga","lat":"56.9567","lng":"24.1276","description":"
Izmaksas autom\u0101ts - neierobe\u017eots darba laiks

T\u0113rbatas iela 40
"},{"type":"co","id":["437"],"name":"Izmaksas autom\u0101ts","address":"Mat\u012bsa iela 25","city":"R\u012bga","lat":"56.9571","lng":"24.1343","description":"
Izmaksas autom\u0101ts - neierobe\u017eots darba laiks

Mat\u012bsa iela 25
"},{"type":"co","id":["449"],"name":"Izmaksas autom\u0101ts","address":"Br\u012bv\u012bbas iela 68","city":"R\u012bga","lat":"56.9573","lng":"24.1237","description":"
Izmaksas autom\u0101ts - neierobe\u017eots darba laiks

Br\u012bv\u012bbas iela 68
"},{"type":"co","id":["435"],"name":"Izmaksas autom\u0101ts","address":"Tallinas iela 72\/74","city":"R\u012bga","lat":"56.9574","lng":"24.1463","description":"
Izmaksas autom\u0101ts - neierobe\u017eots darba laiks

Tallinas iela 72\/74
"},{"type":"co","id":["407"],"name":"Izmaksas autom\u0101ts","address":"Dzelzavas iela 51","city":"R\u012bga","lat":"56.9578","lng":"24.1852","description":"
Izmaksas autom\u0101ts - neierobe\u017eots darba laiks

Dzelzavas iela 51
"},{"type":"cico","id":["381","679"],"name":"Izmaksas autom\u0101ts,Iemaksas autom\u0101ts","address":"Bi\u0137ernieku iela 120b","city":"R\u012bga","lat":"56.9582","lng":"24.2392","description":"
Izmaksas autom\u0101ts - neierobe\u017eots darba laiks
Iemaksas autom\u0101ts - T\/c darba laiks

Bi\u0137ernieku iela 120b
"},{"type":"co","id":["452"],"name":"Izmaksas autom\u0101ts","address":"Kr. Valdem\u0101ra iela 37","city":"R\u012bga","lat":"56.9584","lng":"24.1167","description":"
Izmaksas autom\u0101ts - neierobe\u017eots darba laiks

Kr. Valdem\u0101ra iela 37
"},{"type":"co","id":["451"],"name":"Izmaksas autom\u0101ts","address":"Str\u0113lnieku iela 1","city":"R\u012bga","lat":"56.9587","lng":"24.1059","description":"
Izmaksas autom\u0101ts - neierobe\u017eots darba laiks

Str\u0113lnieku iela 1
"},{"type":"co","id":["404"],"name":"Izmaksas autom\u0101ts","address":"N\u012bcgales iela 2","city":"R\u012bga","lat":"56.959","lng":"24.1771","description":"
Izmaksas autom\u0101ts - neierobe\u017eots darba laiks

N\u012bcgales iela 2
"},{"type":"co","id":["410"],"name":"Izmaksas autom\u0101ts","address":"Stirnu iela 26","city":"R\u012bga","lat":"56.959","lng":"24.1853","description":"
Izmaksas autom\u0101ts - neierobe\u017eots darba laiks

Stirnu iela 26
"},{"type":"co","id":["517"],"name":"Izmaksas autom\u0101ts","address":"J\u016brmala, Nomet\u0146u iela 3","city":"J\u016brmala","lat":"56.9595","lng":"23.6086","description":"
Izmaksas autom\u0101ts - neierobe\u017eots darba laiks

J\u016brmala, Nomet\u0146u iela 3
"},{"type":"co","id":["481"],"name":"Izmaksas autom\u0101ts","address":"Kurzemes prospekts 141","city":"R\u012bga","lat":"56.9598","lng":"23.9974","description":"
Izmaksas autom\u0101ts - neierobe\u017eots darba laiks

Kurzemes prospekts 141
"},{"type":"co","id":["431"],"name":"Izmaksas autom\u0101ts","address":"Br\u012bv\u012bbas iela 90","city":"R\u012bga","lat":"56.96","lng":"24.1305","description":"
Izmaksas autom\u0101ts - neierobe\u017eots darba laiks

Br\u012bv\u012bbas iela 90
"},{"type":"co","id":["402"],"name":"Izmaksas autom\u0101ts","address":"Dzelzavas iela 36","city":"R\u012bga","lat":"56.9613","lng":"24.173","description":"
Izmaksas autom\u0101ts - neierobe\u017eots darba laiks

Dzelzavas iela 36
"},{"type":"co","id":["569"],"name":"Izmaksas autom\u0101ts","address":"J\u016brmala, Talsu \u0161oseja 29","city":"J\u016brmala","lat":"56.9614","lng":"23.6152","description":"
Izmaksas autom\u0101ts - neierobe\u017eots darba laiks

J\u016brmala, Talsu \u0161oseja 29
"},{"type":"co","id":["370"],"name":"Izmaksas autom\u0101ts","address":"Slokas iela 115","city":"R\u012bga","lat":"56.9615","lng":"24.0383","description":"
Izmaksas autom\u0101ts - neierobe\u017eots darba laiks

Slokas iela 115
"},{"type":"co","id":["367"],"name":"Izmaksas autom\u0101ts","address":"Kleistu iela 9","city":"R\u012bga","lat":"56.9622","lng":"24.0225","description":"
Izmaksas autom\u0101ts - neierobe\u017eots darba laiks

Kleistu iela 9
"},{"type":"co","id":["405"],"name":"Izmaksas autom\u0101ts","address":"Vaidavas iela 4","city":"R\u012bga","lat":"56.9635","lng":"24.1762","description":"
Izmaksas autom\u0101ts - neierobe\u017eots darba laiks

Vaidavas iela 4
"},{"type":"co","id":["447"],"name":"Izmaksas autom\u0101ts","address":"Kr. Valdem\u0101ra iela 83","city":"R\u012bga","lat":"56.9637","lng":"24.1255","description":"
Izmaksas autom\u0101ts - neierobe\u017eots darba laiks

Kr. Valdem\u0101ra iela 83
"},{"type":"co","id":["521"],"name":"Izmaksas autom\u0101ts","address":"Kuld\u012bga, S\u016bra iela 2","city":"Kuld\u012bga","lat":"56.9638","lng":"21.9643","description":"
Izmaksas autom\u0101ts - neierobe\u017eots darba laiks

Kuld\u012bga, S\u016bra iela 2
"},{"type":"co","id":["372"],"name":"Izmaksas autom\u0101ts","address":"Kurzemes prospekts 59a","city":"R\u012bga","lat":"56.9644","lng":"24.0278","description":"
Izmaksas autom\u0101ts - neierobe\u017eots darba laiks

Kurzemes prospekts 59a
"},{"type":"co","id":["415"],"name":"Izmaksas autom\u0101ts","address":"Br\u012bv\u012bbas iela 149","city":"R\u012bga","lat":"56.9651","lng":"24.1422","description":"
Izmaksas autom\u0101ts - neierobe\u017eots darba laiks

Br\u012bv\u012bbas iela 149
"},{"type":"co","id":["408"],"name":"Izmaksas autom\u0101ts","address":"Ieri\u0137u iela 3","city":"R\u012bga","lat":"56.9655","lng":"24.1616","description":"
Izmaksas autom\u0101ts - neierobe\u017eots darba laiks

Ieri\u0137u iela 3
"},{"type":"co","id":["409"],"name":"Izmaksas autom\u0101ts","address":"Ieri\u0137u iela 3","city":"R\u012bga","lat":"56.9656","lng":"24.1617","description":"
Izmaksas autom\u0101ts - neierobe\u017eots darba laiks

Ieri\u0137u iela 3
"},{"type":"co","id":["368"],"name":"Izmaksas autom\u0101ts","address":"Dammes iela 46","city":"R\u012bga","lat":"56.966","lng":"24.0093","description":"
Izmaksas autom\u0101ts - neierobe\u017eots darba laiks

Dammes iela 46
"},{"type":"co","id":["626"],"name":"Izmaksas autom\u0101ts","address":"Tukuma rajona, Jaunpils pagast\u0101 \u201eJ\u0101\u0146krogs\u201d","city":"Jaunpils","lat":"56.9669","lng":"23.1534","description":"
Izmaksas autom\u0101ts - neierobe\u017eots darba laiks

Tukuma rajona, Jaunpils pagast\u0101 \u201eJ\u0101\u0146krogs\u201d
"},{"type":"co","id":["433"],"name":"Izmaksas autom\u0101ts","address":"Br\u012bv\u012bbas iela 188","city":"R\u012bga","lat":"56.9676","lng":"24.1498","description":"
Izmaksas autom\u0101ts - neierobe\u017eots darba laiks

Br\u012bv\u012bbas iela 188
"},{"type":"co","id":["516"],"name":"Izmaksas autom\u0101ts","address":"J\u016brmala, Viestura prospekts 22","city":"J\u016brmala","lat":"56.9682","lng":"23.7705","description":"
Izmaksas autom\u0101ts - neierobe\u017eots darba laiks

J\u016brmala, Viestura prospekts 22
"},{"type":"co","id":["427"],"name":"Izmaksas autom\u0101ts","address":"Raunas iela 37","city":"R\u012bga","lat":"56.9682","lng":"24.1813","description":"
Izmaksas autom\u0101ts - neierobe\u017eots darba laiks

Raunas iela 37
"},{"type":"co","id":["382"],"name":"Izmaksas autom\u0101ts","address":"S. Eizen\u0161teina iela 29","city":"R\u012bga","lat":"56.9686","lng":"24.2309","description":"
Izmaksas autom\u0101ts - neierobe\u017eots darba laiks

S. Eizen\u0161teina iela 29
"},{"type":"co","id":["366"],"name":"Izmaksas autom\u0101ts","address":"Lido\u0146u iela 27","city":"R\u012bga","lat":"56.9693","lng":"24.0585","description":"
Izmaksas autom\u0101ts - neierobe\u017eots darba laiks

Lido\u0146u iela 27
"},{"type":"co","id":["645"],"name":"Izmaksas autom\u0101ts","address":"Me\u017ea iela 22","city":"Tukums","lat":"56.9696","lng":"23.1624","description":"
Izmaksas autom\u0101ts - neierobe\u017eots darba laiks

Me\u017ea iela 22
"},{"type":"co","id":["550"],"name":"Izmaksas autom\u0101ts","address":"Tukums, Kurzemes iela 2A","city":"Tukums","lat":"56.9704","lng":"23.1636","description":"
Izmaksas autom\u0101ts - neierobe\u017eots darba laiks

Tukums, Kurzemes iela 2A
"},{"type":"co","id":["365"],"name":"Izmaksas autom\u0101ts","address":"Hipokr\u0101ta iela 2","city":"R\u012bga","lat":"56.9704","lng":"24.2387","description":"
Izmaksas autom\u0101ts - neierobe\u017eots darba laiks

Hipokr\u0101ta iela 2
"},{"type":"co","id":["428"],"name":"Izmaksas autom\u0101ts","address":"Kr. Valdem\u0101ra iela 106\/108","city":"R\u012bga","lat":"56.9718","lng":"24.135","description":"
Izmaksas autom\u0101ts - neierobe\u017eots darba laiks

Kr. Valdem\u0101ra iela 106\/108
"},{"type":"co","id":["585"],"name":"Izmaksas autom\u0101ts","address":"R\u012bgas raj. Ropa\u017eu pag. ","city":"Ropa\u017ei","lat":"56.9739","lng":"24.6314","description":"
Izmaksas autom\u0101ts - neierobe\u017eots darba laiks

R\u012bgas raj. Ropa\u017eu pag. 
"},{"type":"co","id":["446"],"name":"Izmaksas autom\u0101ts","address":"Kr. Valdem\u0101ra iela","city":"R\u012bga","lat":"56.9745","lng":"24.136","description":"
Izmaksas autom\u0101ts - neierobe\u017eots darba laiks

Kr. Valdem\u0101ra iela
"},{"type":"co","id":["414"],"name":"Izmaksas autom\u0101ts","address":"Br\u012bv\u012bbas gatve 231","city":"R\u012bga","lat":"56.9763","lng":"24.1765","description":"
Izmaksas autom\u0101ts - neierobe\u017eots darba laiks

Br\u012bv\u012bbas gatve 231
"},{"type":"co","id":["413"],"name":"Izmaksas autom\u0101ts","address":"Ropa\u017eu iela 6","city":"R\u012bga","lat":"56.9767","lng":"24.1716","description":"
Izmaksas autom\u0101ts - neierobe\u017eots darba laiks

Ropa\u017eu iela 6
"},{"type":"co","id":["471"],"name":"Izmaksas autom\u0101ts","address":"Juglas iela 45","city":"R\u012bga","lat":"56.9781","lng":"24.2536","description":"
Izmaksas autom\u0101ts - neierobe\u017eots darba laiks

Juglas iela 45
"},{"type":"co","id":["412"],"name":"Izmaksas autom\u0101ts","address":"Br\u012bv\u012bbas iela 263","city":"R\u012bga","lat":"56.9788","lng":"24.1846","description":"
Izmaksas autom\u0101ts - neierobe\u017eots darba laiks

Br\u012bv\u012bbas iela 263
"},{"type":"co","id":["411"],"name":"Izmaksas autom\u0101ts","address":"Br\u012bv\u012bbas gatve 299","city":"R\u012bga","lat":"56.9819","lng":"24.1952","description":"
Izmaksas autom\u0101ts - neierobe\u017eots darba laiks

Br\u012bv\u012bbas gatve 299
"},{"type":"co","id":["384"],"name":"Izmaksas autom\u0101ts","address":"\u010ciekurklana 1. linija 1 k-4 ","city":"R\u012bga","lat":"56.9831","lng":"24.1629","description":"
Izmaksas autom\u0101ts - neierobe\u017eots darba laiks

\u010ciekurklana 1. linija 1 k-4 
"},{"type":"cico","id":["421","689"],"name":"Izmaksas autom\u0101ts,Iemaksas autom\u0101ts","address":"Duntes iela 19a","city":"R\u012bga","lat":"56.9868","lng":"24.1336","description":"
Izmaksas autom\u0101ts - neierobe\u017eots darba laiks
Iemaksas autom\u0101ts - Ir pieejams T\/C \"Sky&More\" darba laik\u0101

Duntes iela 19a
"},{"type":"co","id":["416"],"name":"Izmaksas autom\u0101ts","address":"Dambja iela 10","city":"R\u012bga","lat":"56.9884","lng":"24.1296","description":"
Izmaksas autom\u0101ts - neierobe\u017eots darba laiks

Dambja iela 10
"},{"type":"co","id":["470"],"name":"Izmaksas autom\u0101ts","address":"Br\u012bv\u012bbas gatve 434b","city":"R\u012bga","lat":"56.9918","lng":"24.2497","description":"
Izmaksas autom\u0101ts - neierobe\u017eots darba laiks

Br\u012bv\u012bbas gatve 434b
"},{"type":"co","id":["417"],"name":"Izmaksas autom\u0101ts","address":"Sarkandaugavas iela 6a","city":"R\u012bga","lat":"56.9958","lng":"24.1255","description":"
Izmaksas autom\u0101ts - neierobe\u017eots darba laiks

Sarkandaugavas iela 6a
"},{"type":"co","id":["584"],"name":"Izmaksas autom\u0101ts","address":"M\u0101lpils, Pirts iela 5","city":"M\u0101lpils","lat":"57.0099","lng":"24.9593","description":"
Izmaksas autom\u0101ts - neierobe\u017eots darba laiks

M\u0101lpils, Pirts iela 5
"},{"type":"co","id":["356"],"name":"Izmaksas autom\u0101ts","address":"Balt\u0101sbazn\u012bcas iela 42","city":"R\u012bga","lat":"57.0198","lng":"24.1338","description":"
Izmaksas autom\u0101ts - neierobe\u017eots darba laiks

Balt\u0101sbazn\u012bcas iela 42
"},{"type":"co","id":["450"],"name":"Izmaksas autom\u0101ts","address":"Milgr\u0101vja iela 6","city":"R\u012bga","lat":"57.0262","lng":"24.1382","description":"
Izmaksas autom\u0101ts - neierobe\u017eots darba laiks

Milgr\u0101vja iela 6
"},{"type":"co","id":["357"],"name":"Izmaksas autom\u0101ts","address":"A.Dombrovska 23","city":"R\u012bga","lat":"57.0313","lng":"24.1105","description":"
Izmaksas autom\u0101ts - neierobe\u017eots darba laiks

A.Dombrovska 23
"},{"type":"co","id":["389"],"name":"Izmaksas autom\u0101ts","address":"St\u016brma\u0146u iela 29","city":"R\u012bga","lat":"57.0325","lng":"24.0481","description":"
Izmaksas autom\u0101ts - neierobe\u017eots darba laiks

St\u016brma\u0146u iela 29
"},{"type":"co","id":["390"],"name":"Izmaksas autom\u0101ts","address":"St\u016brma\u0146u iela 27","city":"R\u012bga","lat":"57.0332","lng":"24.0485","description":"
Izmaksas autom\u0101ts - neierobe\u017eots darba laiks

St\u016brma\u0146u iela 27
"},{"type":"co","id":["391"],"name":"Izmaksas autom\u0101ts","address":"Skuju iela 25","city":"R\u012bga","lat":"57.0333","lng":"24.105","description":"
Izmaksas autom\u0101ts - neierobe\u017eots darba laiks

Skuju iela 25
"},{"type":"co","id":["355"],"name":"Izmaksas autom\u0101ts","address":"Par\u0101des iela 5b","city":"R\u012bga","lat":"57.0399","lng":"24.0276","description":"
Izmaksas autom\u0101ts - neierobe\u017eots darba laiks

Par\u0101des iela 5b
"},{"type":"co","id":["518"],"name":"Izmaksas autom\u0101ts","address":"Kandava, Abavas iela 4b","city":"Kandava","lat":"57.0413","lng":"22.773","description":"
Izmaksas autom\u0101ts - neierobe\u017eots darba laiks

Kandava, Abavas iela 4b
"},{"type":"co","id":["484","613"],"name":"Izmaksas autom\u0101ts","address":"\u0100da\u017ei, R\u012bgas gatve 5","city":"\u0100da\u017ei","lat":"57.0724","lng":"24.3271","description":"
Izmaksas autom\u0101ts - neierobe\u017eots darba laiks

\u0100da\u017ei, R\u012bgas gatve 5
"},{"type":"co","id":["595"],"name":"Izmaksas autom\u0101ts","address":"Gaujas iela 10","city":"Vanga\u017ei","lat":"57.0925","lng":"24.5466","description":"
Izmaksas autom\u0101ts - neierobe\u017eots darba laiks

Gaujas iela 10
"},{"type":"co","id":["589"],"name":"Izmaksas autom\u0101ts","address":"R\u012bgas raj. In\u010dukalna pag. \"V\u012bti\u0146kalni\"","city":"In\u010dukalns","lat":"57.0978","lng":"24.6857","description":"
Izmaksas autom\u0101ts - neierobe\u017eots darba laiks

R\u012bgas raj. In\u010dukalna pag. \"V\u012bti\u0146kalni\"
"},{"type":"co","id":["610"],"name":"Izmaksas autom\u0101ts","address":" R\u012bgas iela 14a","city":"Carnikava","lat":"57.1304","lng":"24.271","description":"
Izmaksas autom\u0101ts - neierobe\u017eots darba laiks

 R\u012bgas iela 14a
"},{"type":"co","id":["640"],"name":"Izmaksas autom\u0101ts","address":"Balvi, Br\u012bv\u012bbas iela 57","city":"Balvi","lat":"57.1324","lng":"27.2667","description":"
Izmaksas autom\u0101ts - neierobe\u017eots darba laiks

Balvi, Br\u012bv\u012bbas iela 57
"},{"type":"co","id":["578"],"name":"Izmaksas autom\u0101ts","address":"Ape, Stacijas iela 6","city":"Ape","lat":"57.1395","lng":"27.2507","description":"
Izmaksas autom\u0101ts - neierobe\u017eots darba laiks

Ape, Stacijas iela 6
"},{"type":"co","id":["564"],"name":"Izmaksas autom\u0101ts","address":"Sigulda, Ventas iela 1","city":"Sigulda","lat":"57.1411","lng":"24.8446","description":"
Izmaksas autom\u0101ts - neierobe\u017eots darba laiks

Sigulda, Ventas iela 1
"},{"type":"co","id":["605"],"name":"Izmaksas autom\u0101ts","address":"Stende,Br\u012bv\u012bbas iela 12","city":"Stende","lat":"57.1467","lng":"22.5323","description":"
Izmaksas autom\u0101ts - neierobe\u017eots darba laiks

Stende,Br\u012bv\u012bbas iela 12
"},{"type":"co","id":["506"],"name":"Izmaksas autom\u0101ts","address":"In\u010dukalns, Atmodas iela 4","city":"In\u010dukalns","lat":"57.1471","lng":"24.8555","description":"
Izmaksas autom\u0101ts - neierobe\u017eots darba laiks

In\u010dukalns, Atmodas iela 4
"},{"type":"co","id":["546"],"name":"Izmaksas autom\u0101ts","address":"Sigulda, Rai\u0146a iela 3","city":"Sigulda","lat":"57.1544","lng":"24.8546","description":"
Izmaksas autom\u0101ts - neierobe\u017eots darba laiks

Sigulda, Rai\u0146a iela 3
"},{"type":"co","id":["580"],"name":"Izmaksas autom\u0101ts","address":"Engure, J\u016bras iela 62","city":"Engure","lat":"57.1607","lng":"23.2245","description":"
Izmaksas autom\u0101ts - neierobe\u017eots darba laiks

Engure, J\u016bras iela 62
"},{"type":"cico","id":["597","704"],"name":"Izmaksas autom\u0101ts,Iemaksas autom\u0101ts","address":"Gulbene, Br\u012bv\u012bbas iela 56","city":"Gulbene","lat":"57.1713","lng":"26.7497","description":"
Izmaksas autom\u0101ts - neierobe\u017eots darba laiks
Iemaksas autom\u0101ts - pieejams veikala darba laik\u0101

Gulbene, Br\u012bv\u012bbas iela 56
"},{"type":"co","id":["602"],"name":"Izmaksas autom\u0101ts","address":"Gulbene, R\u012bgas iela 65a","city":"Gulbene","lat":"57.1768","lng":"26.7566","description":"
Izmaksas autom\u0101ts - neierobe\u017eots darba laiks

Gulbene, R\u012bgas iela 65a
"},{"type":"co","id":["582","490"],"name":"Izmaksas autom\u0101ts","address":"L\u012bgatne, Spri\u0146\u0123u iela 4","city":"L\u012bgatne","lat":"57.2358","lng":"25.0368","description":"
Izmaksas autom\u0101ts - neierobe\u017eots darba laiks

L\u012bgatne, Spri\u0146\u0123u iela 4
"},{"type":"co","id":["548"],"name":"Izmaksas autom\u0101ts","address":"Talsi, Liel\u0101 iela 2","city":"Talsi","lat":"57.2444","lng":"22.5867","description":"
Izmaksas autom\u0101ts - neierobe\u017eots darba laiks

Talsi, Liel\u0101 iela 2
"},{"type":"co","id":["545"],"name":"Izmaksas autom\u0101ts","address":"Aina\u017eu iela 20","city":"Saulkrasti","lat":"57.2662","lng":"24.4145","description":"
Izmaksas autom\u0101ts - neierobe\u017eots darba laiks

Aina\u017eu iela 20
"},{"type":"co","id":["628","634"],"name":"Izmaksas autom\u0101ts","address":"C\u0113su rajons, Taurenes pagasts \"Lauras\"","city":"Taurene","lat":"57.3127","lng":"25.2754","description":"
Izmaksas autom\u0101ts - neierobe\u017eots darba laiks

C\u0113su rajons, Taurenes pagasts \"Lauras\"
"},{"type":"co","id":["579"],"name":"Izmaksas autom\u0101ts","address":"C\u0113sis, J. Poruka iela 23","city":"C\u0113sis","lat":"57.3143","lng":"25.2925","description":"
Izmaksas autom\u0101ts - neierobe\u017eots darba laiks

C\u0113sis, J. Poruka iela 23
"},{"type":"co","id":["489"],"name":"Izmaksas autom\u0101ts","address":"C\u0113sis, Valmieras iela 27","city":"C\u0113sis","lat":"57.32","lng":"25.2892","description":"
Izmaksas autom\u0101ts - neierobe\u017eots darba laiks

C\u0113sis, Valmieras iela 27
"},{"type":"co","id":["598"],"name":"Izmaksas autom\u0101ts","address":"Al\u016bksnes raj, Gaujienas pag., \u201eGaujas\u201d","city":"Gaujiena","lat":"57.3667","lng":"26.1147","description":"
Izmaksas autom\u0101ts - neierobe\u017eots darba laiks

Al\u016bksnes raj, Gaujienas pag., \u201eGaujas\u201d
"},{"type":"co","id":["570"],"name":"Izmaksas autom\u0101ts","address":"Liepa, R\u016bpn\u012bcas iela 1","city":"Liepa","lat":"57.3808","lng":"25.4291","description":"
Izmaksas autom\u0101ts - neierobe\u017eots darba laiks

Liepa, R\u016bpn\u012bcas iela 1
"},{"type":"co","id":["563"],"name":"Izmaksas autom\u0101ts","address":"Ventspils, Lielais prospekts 3\/5","city":"Ventspils","lat":"57.3883","lng":"21.5803","description":"
Izmaksas autom\u0101ts - neierobe\u017eots darba laiks

Ventspils, Lielais prospekts 3\/5
"},{"type":"co","id":["557"],"name":"Izmaksas autom\u0101ts","address":"Ventspils, Kuld\u012bgas iela 26","city":"Ventspils","lat":"57.3941","lng":"21.5651","description":"
Izmaksas autom\u0101ts - neierobe\u017eots darba laiks

Ventspils, Kuld\u012bgas iela 26
"},{"type":"co","id":["606"],"name":"Izmaksas autom\u0101ts","address":"Ventspils raj. Ug\u0101les pag \"St\u016bris\"","city":"Ug\u0101le","lat":"57.395","lng":"21.5926","description":"
Izmaksas autom\u0101ts - neierobe\u017eots darba laiks

Ventspils raj. Ug\u0101les pag \"St\u016bris\"
"},{"type":"cico","id":["562","730"],"name":"Izmaksas autom\u0101ts,Iemaksas autom\u0101ts","address":"Ventspils, Talsu iela 6","city":"Ventspils","lat":"57.402","lng":"21.5845","description":"
Izmaksas autom\u0101ts - neierobe\u017eots darba laiks
Iemaksas autom\u0101ts - veikala darba laik\u0101

Ventspils, Talsu iela 6
"},{"type":"co","id":["644"],"name":"Izmaksas autom\u0101ts","address":"Celtnieku iela 3-96","city":"Ventspils","lat":"57.408","lng":"21.5963","description":"
Izmaksas autom\u0101ts - neierobe\u017eots darba laiks

Celtnieku iela 3-96
"},{"type":"co","id":["599"],"name":"Izmaksas autom\u0101ts","address":"Al\u016bksne, Latgales iela 3b","city":"Al\u016bksne","lat":"57.4206","lng":"27.0515","description":"
Izmaksas autom\u0101ts - neierobe\u017eots darba laiks

Al\u016bksne, Latgales iela 3b
"},{"type":"co","id":["527"],"name":"Izmaksas autom\u0101ts","address":"Vaidava, Skolas iela 1","city":"Vaidava","lat":"57.4281","lng":"25.2817","description":"
Izmaksas autom\u0101ts - neierobe\u017eots darba laiks

Vaidava, Skolas iela 1
"},{"type":"co","id":["604"],"name":"Izmaksas autom\u0101ts","address":"Roja, Selgas iela 4","city":"Roja","lat":"57.5039","lng":"22.8117","description":"
Izmaksas autom\u0101ts - neierobe\u017eots darba laiks

Roja, Selgas iela 4
"},{"type":"cico","id":["583","715"],"name":"Izmaksas autom\u0101ts,Iemaksas autom\u0101ts","address":"Limba\u017ei, R\u012bgas iela 8","city":"Limba\u017ei","lat":"57.5127","lng":"24.7161","description":"
Izmaksas autom\u0101ts - neierobe\u017eots darba laiks
Iemaksas autom\u0101ts - pieejams veikala darba laik\u0101

Limba\u017ei, R\u012bgas iela 8
"},{"type":"co","id":["576"],"name":"Izmaksas autom\u0101ts","address":"Valmiera, M\u016brmui\u017eas iela 14","city":"Valmiera","lat":"57.5198","lng":"25.4443","description":"
Izmaksas autom\u0101ts - neierobe\u017eots darba laiks

Valmiera, M\u016brmui\u017eas iela 14
"},{"type":"co","id":["643"],"name":"Izmaksas autom\u0101ts","address":"Jumaras iela 195","city":"Valmiera","lat":"57.5236","lng":"25.3916","description":"
Izmaksas autom\u0101ts - neierobe\u017eots darba laiks

Jumaras iela 195
"},{"type":"co","id":["554"],"name":"Izmaksas autom\u0101ts","address":"Valmiera, R\u012bgas iela 87","city":"Valmiera","lat":"57.531","lng":"25.3918","description":"
Izmaksas autom\u0101ts - neierobe\u017eots darba laiks

Valmiera, R\u012bgas iela 87
"},{"type":"co","id":["553"],"name":"Izmaksas autom\u0101ts","address":"Valmiera, Stacijas iela 11","city":"Valmiera","lat":"57.5311","lng":"25.4295","description":"
Izmaksas autom\u0101ts - neierobe\u017eots darba laiks

Valmiera, Stacijas iela 11
"},{"type":"co","id":["620"],"name":"Izmaksas autom\u0101ts","address":"R\u012bgas iela 4","city":"Valmiera","lat":"57.5385","lng":"25.4253","description":"
Izmaksas autom\u0101ts - neierobe\u017eots darba laiks

R\u012bgas iela 4
"},{"type":"cico","id":["596","728"],"name":"Izmaksas autom\u0101ts,Iemaksas autom\u0101ts","address":"G. Api\u0146a iela 10a ","city":"Valmiera","lat":"57.5416","lng":"25.4165","description":"
Izmaksas autom\u0101ts - neierobe\u017eots darba laiks
Iemaksas autom\u0101ts - pieejams T\/C darba laik\u0101

G. Api\u0146a iela 10a 
"},{"type":"co","id":["617"],"name":"Izmaksas autom\u0101ts","address":"Valmieras r. Nauk\u0161\u0113nu p \"Str\u0113lnieki\"","city":"Nauk\u0161\u0113ni","lat":"57.5434","lng":"25.4298","description":"
Izmaksas autom\u0101ts - neierobe\u017eots darba laiks

Valmieras r. Nauk\u0161\u0113nu p \"Str\u0113lnieki\"
"},{"type":"co","id":["552"],"name":"Izmaksas autom\u0101ts","address":"Valmiera, Rubenes iela 51","city":"Valmiera","lat":"57.5466","lng":"25.4193","description":"
Izmaksas autom\u0101ts - neierobe\u017eots darba laiks

Valmiera, Rubenes iela 51
"},{"type":"co","id":["616"],"name":"Izmaksas autom\u0101ts","address":"Alejas iela 8","city":"Koc\u0113ni","lat":"57.5589","lng":"25.4306","description":"
Izmaksas autom\u0101ts - neierobe\u017eots darba laiks

Alejas iela 8
"},{"type":"co","id":["612"],"name":"Izmaksas autom\u0101ts","address":"Valmiermui\u017eas iela 11","city":"Valmiermui\u017ea","lat":"57.5605","lng":"25.4283","description":"
Izmaksas autom\u0101ts - neierobe\u017eots darba laiks

Valmiermui\u017eas iela 11
"},{"type":"co","id":["615"],"name":"Izmaksas autom\u0101ts","address":"Sporta iela 2a","city":"Seda","lat":"57.6503","lng":"25.7494","description":"
Izmaksas autom\u0101ts - neierobe\u017eots darba laiks

Sporta iela 2a
"},{"type":"co","id":["651"],"name":"Izmaksas autom\u0101ts","address":"Jelgavkrasti","city":"Jelgavkrasti","lat":"57.7535","lng":"24.3592","description":"
Izmaksas autom\u0101ts - neierobe\u017eots darba laiks

Jelgavkrasti
"},{"type":"co","id":["586"],"name":"Izmaksas autom\u0101ts","address":"Salacgr\u012bva, P\u0113rnavas iela 1","city":"Salacgr\u012bva","lat":"57.7558","lng":"24.3614","description":"
Izmaksas autom\u0101ts - neierobe\u017eots darba laiks

Salacgr\u012bva, P\u0113rnavas iela 1
"},{"type":"co","id":["594"],"name":"Izmaksas autom\u0101ts","address":"Valka, Rai\u0146a iela 7","city":"Valka","lat":"57.7682","lng":"25.9914","description":"
Izmaksas autom\u0101ts - neierobe\u017eots darba laiks

Valka, Rai\u0146a iela 7
"},{"type":"co","id":["483"],"name":"Izmaksas autom\u0101ts","address":"Aloja, J\u016bras iela 12","city":"Aloja","lat":"57.7685","lng":"24.8809","description":"
Izmaksas autom\u0101ts - neierobe\u017eots darba laiks

Aloja, J\u016bras iela 12
"},{"type":"co","id":["587"],"name":"Izmaksas autom\u0101ts","address":"Staicele, Liel\u0101 iela 6a","city":"Staicele","lat":"57.8355","lng":"24.7447","description":"
Izmaksas autom\u0101ts - neierobe\u017eots darba laiks

Staicele, Liel\u0101 iela 6a
"},{"type":"co","id":["624"],"name":"Izmaksas autom\u0101ts","address":"R\u016bjienas iela 1","city":"Mazsalaca","lat":"57.8636","lng":"25.0547","description":"
Izmaksas autom\u0101ts - neierobe\u017eots darba laiks

R\u016bjienas iela 1
"},{"type":"co","id":["577"],"name":"Izmaksas autom\u0101ts","address":"Aina\u017ei, K. Valdem\u0101ra iela 36","city":"Aina\u017ei","lat":"57.8639","lng":"24.3601","description":"
Izmaksas autom\u0101ts - neierobe\u017eots darba laiks

Aina\u017ei, K. Valdem\u0101ra iela 36
"},{"type":"ci","id":["701"],"name":"Iemaksas autom\u0101ts","address":"Daugavpils, R\u012bgas iela 9","city":"Daugavpils","lat":"55.8714","lng":"26.5176","description":"
Iemaksas autom\u0101ts - T\/C darba laik\u0101

Daugavpils, R\u012bgas iela 9
"},{"type":"ci","id":["719"],"name":"Iemaksas autom\u0101ts","address":"Prei\u013ci, R\u0113zeknes iela 13, \r\n","city":"Prei\u013ci","lat":"56.2953","lng":"26.7259","description":"
Iemaksas autom\u0101ts - darbdien\u0101s 9:00-17:00

Prei\u013ci, R\u0113zeknes iela 13, \r\n
"},{"type":"ci","id":["714"],"name":"Iemaksas autom\u0101ts","address":"Liep\u0101ja, Klaip\u0113das iela 62","city":"Liep\u0101ja","lat":"56.4918","lng":"21.0055","description":"
Iemaksas autom\u0101ts - pieejams veikala darba laik\u0101

Liep\u0101ja, Klaip\u0113das iela 62
"},{"type":"ci","id":["723"],"name":"Iemaksas autom\u0101ts","address":"Liep\u0101ja, J\u016bras iela 12,\r\nt\u0101lr. 67444444\r\nfakss 67448234\r\n","city":"Liep\u0101ja","lat":"56.5119","lng":"21.0107","description":"
Iemaksas autom\u0101ts - darbdien\u0101s 9:00-17:00

Liep\u0101ja, J\u016bras iela 12,\r\nt\u0101lr. 67444444\r\nfakss 67448234\r\n
"},{"type":"ci","id":["718"],"name":"Iemaksas autom\u0101ts","address":"Olaine, Vesel\u012bbas iela 1","city":"Olaine","lat":"56.7926","lng":"23.9507","description":"
Iemaksas autom\u0101ts - pieejams t\/c darba laik\u0101

Olaine, Vesel\u012bbas iela 1
"},{"type":"ci","id":["717"],"name":"Iemaksas autom\u0101ts","address":"Ogre, Br\u012bv\u012bbas iela 11,\r\nt\u0101lr. 67444444\r\nfakss 67448838","city":"Ogre","lat":"56.8167","lng":"24.6044","description":"
Iemaksas autom\u0101ts - darbdien\u0101s 9:00-17:00

Ogre, Br\u012bv\u012bbas iela 11,\r\nt\u0101lr. 67444444\r\nfakss 67448838
"},{"type":"ci","id":["716"],"name":"Iemaksas autom\u0101ts","address":"Madona, Saules iela 6","city":"Madona","lat":"56.8519","lng":"26.2208","description":"
Iemaksas autom\u0101ts - pieejams veikala darba laik\u0101

Madona, Saules iela 6
"},{"type":"ci","id":["680"],"name":"Iemaksas autom\u0101ts","address":"R\u012bga, M\u016bkusalas iela 71 (t\/c \"R\u012bga Plaza\"),\r\nt\u0101lr. 67444444\r\nfakss 67446209","city":"R\u012bga","lat":"56.9297","lng":"24.107","description":"
Iemaksas autom\u0101ts - Ir pieejams T\/C \"R\u012bga Plaza\" darba laik\u0101 

R\u012bga, M\u016bkusalas iela 71 (t\/c \"R\u012bga Plaza\"),\r\nt\u0101lr. 67444444\r\nfakss 67446209
"},{"type":"ci","id":["675","676"],"name":"Iemaksas autom\u0101ts","address":"R\u012bga, Krasta iela 46","city":"R\u012bga","lat":"56.9338","lng":"24.1431","description":"
Iemaksas autom\u0101ts - T\/c darba laiks

R\u012bga, Krasta iela 46
"},{"type":"ci","id":["655"],"name":"Iemaksas autom\u0101ts","address":"R\u012bga, Maz\u0101 Nomet\u0146u iela 27\r\nt\u0101lr. 67444444\r\nfakss 67805561","city":"R\u012bga","lat":"56.9357","lng":"24.0716","description":"
Iemaksas autom\u0101ts - darbdien\u0101s: 9:00-17:00

R\u012bga, Maz\u0101 Nomet\u0146u iela 27\r\nt\u0101lr. 67444444\r\nfakss 67805561
"},{"type":"ci","id":["682","683"],"name":"Iemaksas autom\u0101ts","address":"R\u012bga, A.Saharova 20a (t\/c \"Maxima\"),\r\nt\u0101lr. 67444444\r\nfakss 67445098, 67445091","city":"R\u012bga","lat":"56.94","lng":"24.2045","description":"
Iemaksas autom\u0101ts - T\/c darba laiks

R\u012bga, A.Saharova 20a (t\/c \"Maxima\"),\r\nt\u0101lr. 67444444\r\nfakss 67445098, 67445091
"},{"type":"ci","id":["665"],"name":"Iemaksas autom\u0101ts","address":"Stacijas laukums 2","city":"R\u012bga","lat":"56.9467","lng":"24.1198","description":"
Iemaksas autom\u0101ts - ir pieejams T\/c \"Origo\" darba laik\u0101

Stacijas laukums 2
"},{"type":"ci","id":["664"],"name":"Iemaksas autom\u0101ts","address":"R\u012bga, Stacijas laukums 2 (t\/c \"Origo\"),\r\nt\u0101lr. 67444444\r\nfakss 67445495","city":"R\u012bga","lat":"56.9468","lng":"24.1198","description":"
Iemaksas autom\u0101ts - katru dienu 04.30 - 24.00

R\u012bga, Stacijas laukums 2 (t\/c \"Origo\"),\r\nt\u0101lr. 67444444\r\nfakss 67445495
"},{"type":"ci","id":["660"],"name":"Iemaksas autom\u0101ts","address":"Aud\u0113ju iela 16","city":"R\u012bga","lat":"56.9475","lng":"24.1131","description":"
Iemaksas autom\u0101ts - ir pieejams Galerija \"Centrs\" darba laik\u0101

Aud\u0113ju iela 16
"},{"type":"ci","id":["666"],"name":"Iemaksas autom\u0101ts","address":"R\u012bga, Elizabetes iel\u0101 55 (Radisson Blu Hotel Latvija),\r\nt\u0101lr. 67444444\r\nfakss 67214353","city":"R\u012bga","lat":"56.9545","lng":"24.1177","description":"
Iemaksas autom\u0101ts - darbdien\u0101s 9:00-19:00

R\u012bga, Elizabetes iel\u0101 55 (Radisson Blu Hotel Latvija),\r\nt\u0101lr. 67444444\r\nfakss 67214353
"},{"type":"ci","id":["662"],"name":"Iemaksas autom\u0101ts","address":"R\u012bga, Str\u0113lnieku iela 1,\r\nt\u0101lr. 67444444\r\nfakss 67812651","city":"R\u012bga","lat":"56.9589","lng":"24.1063","description":"
Iemaksas autom\u0101ts - darbdien\u0101s 9:00-17:00

R\u012bga, Str\u0113lnieku iela 1,\r\nt\u0101lr. 67444444\r\nfakss 67812651
"},{"type":"ci","id":["708"],"name":"Iemaksas autom\u0101ts","address":"J\u016brmala, Nomet\u0146u iela 11\/13","city":"J\u016brmala","lat":"56.9593","lng":"23.605","description":"
Iemaksas autom\u0101ts - pieejams veikala darba laik\u0101

J\u016brmala, Nomet\u0146u iela 11\/13
"},{"type":"ci","id":["669","671"],"name":"Iemaksas autom\u0101ts","address":"Slokas iela 115","city":"R\u012bga","lat":"56.9615","lng":"24.0374","description":"
Iemaksas autom\u0101ts - T\/c darba laiks

Slokas iela 115
"},{"type":"ci","id":["726"],"name":"Iemaksas autom\u0101ts","address":"Tukums, Pils iela 15a,\r\nt\u0101lr. 67444444\r\nfakss 67448298; 67448299","city":"Tukums","lat":"56.9675","lng":"23.1592","description":"
Iemaksas autom\u0101ts - darbdien\u0101s 9:00-17:00

Tukums, Pils iela 15a,\r\nt\u0101lr. 67444444\r\nfakss 67448298; 67448299
"},{"type":"ci","id":["668"],"name":"Iemaksas autom\u0101ts","address":"R\u012bga, K.Valdem\u0101ra iela 106\/108,\r\nt\u0101lr. 67444444\r\nfakss 67378800","city":"R\u012bga","lat":"56.9722","lng":"24.1344","description":"
Iemaksas autom\u0101ts - darbdien\u0101s 9:00-17:00

R\u012bga, K.Valdem\u0101ra iela 106\/108,\r\nt\u0101lr. 67444444\r\nfakss 67378800
"},{"type":"ci","id":["694"],"name":"Iemaksas autom\u0101ts","address":"\u0100da\u017ei, R\u012bgas gatve 5","city":"\u0100da\u017ei","lat":"57.0237","lng":"24.1978","description":"
Iemaksas autom\u0101ts - T\/C darba laik\u0101

\u0100da\u017ei, R\u012bgas gatve 5
"},{"type":"ci","id":["656"],"name":"Iemaksas autom\u0101ts","address":"St\u016brma\u0146u iela 29","city":"R\u012bga","lat":"57.0328","lng":"24.0486","description":"
Iemaksas autom\u0101ts - Veikala darba laiks

St\u016brma\u0146u iela 29
"},{"type":"ci","id":["722"],"name":"Iemaksas autom\u0101ts","address":"Sigulda, Str\u0113lnieku iela 1","city":"Sigulda","lat":"57.1439","lng":"24.8443","description":"
Iemaksas autom\u0101ts - pieejams T\/C darba laik\u0101

Sigulda, Str\u0113lnieku iela 1
"},{"type":"ci","id":["698"],"name":"Iemaksas autom\u0101ts","address":"R\u012bgas iela 14a","city":"Carnikava","lat":"57.1511","lng":"24.3436","description":"
Iemaksas autom\u0101ts - T\/C darba laik\u0101

R\u012bgas iela 14a
"},{"type":"ci","id":["731"],"name":"Iemaksas autom\u0101ts","address":"Ventspils, Poruka iela 16","city":"Ventspils","lat":"57.3856","lng":"21.5468","description":"
Iemaksas autom\u0101ts - T\/c darba laiks\r\nVentspils, Poruka iela 16
"}]