[{'name': 'KALLAVERE', 'type': 'bcico', 'address': 'NURGA 3, 74113 MAARDU, Harjumaa', 'region': 'Harjumaa', 'lat': '59.4863061', 'lng': '25.0198758', 'description': 'E-R 10.00-18.00'},
{'name': 'KEILA', 'type': 'bcico', 'address': 'KESKVÄLJAK 10, 76607 KEILA, Harjumaa', 'region': 'Harjumaa', 'lat': '59.3084482', 'lng': '24.4242336', 'description': 'E-R 10.00-18.00\r\nL 10.00-14.00'},
{'name': 'SAUE', 'type': 'bcico', 'address': 'PÄRNASALU 11, 76505 SAUE, Harjumaa', 'region': 'Harjumaa', 'lat': '59.3212286', 'lng': '24.5568502', 'description': 'E-R 10.00-17.00'},
{'name': 'KOSE', 'type': 'bcico', 'address': 'PIKK 22, 75101 KOSE, Harjumaa', 'region': 'Harjumaa', 'lat': '59.1845758', 'lng': '25.1668229', 'description': 'E-R 10.00-17.00'},
{'name': 'VÄIKE-MAARJA', 'type': 'bcico', 'address': 'PIKK 16, 46202 VÄIKE-MAARJA, Lääne-Virumaa', 'region': 'Lääne-Virumaa', 'lat': '59.1292389', 'lng': '26.2522259', 'description': 'E 9.00-18.00\r\nT-R 9.00-16.00'},
{'name': 'TAPA', 'type': 'bcico', 'address': 'PIKK 15, 45106 TAPA, Lääne-Virumaa', 'region': 'Lääne-Virumaa', 'lat': '59.2626421', 'lng': '25.9631194', 'description': 'E, R 9.00-18.00\r\nT-N 9.00-16.00'},
{'name': 'KUNDA', 'type': 'bcico', 'address': 'KASEMÄE 10, 44107 KUNDA, Lääne-Virumaa', 'region': 'Lääne-Virumaa', 'lat': '59.4998785', 'lng': '26.5207217', 'description': 'E 9.00-18.00\r\nT-R 9.00-16.00'},
{'name': 'RAKVERE', 'type': 'bcico', 'address': 'LAADA 27, 44310 RAKVERE, Lääne-Virumaa', 'region': 'Lääne-Virumaa', 'lat': '59.3485461', 'lng': '26.3632853', 'description': 'E-R 9.00-18.00\r\nL 9.00-14.00'},
{'name': 'PÕHJAKESKUS', 'type': 'bcico', 'address': 'TÕRREMÄE KÜLA, RAKVERE VALD 44305, Lääne-Virumaa', 'region': 'Lääne-Virumaa', 'lat': '59.3613244', 'lng': '26.4039945', 'description': 'E-R 10.00-18.00\r\nL 10.00-16.00'},
{'name': 'IIDLA', 'type': 'bcico', 'address': 'MALEVA 23, 31021 KOHTLA-JÄRVE, Ida-Virumaa', 'region': 'Ida-Virumaa', 'lat': '59.3284936', 'lng': '27.4201046', 'description': 'E-R 9.00-18.00\r\nL 9.00-14.00'},
{'name': 'NARVA', 'type': 'bcico', 'address': 'TALLINNA MNT 19C, 20303 NARVA, Ida-Virumaa', 'region': 'Ida-Virumaa', 'lat': '59.3904908', 'lng': '28.1140419', 'description': 'E-R 10.00-18.00\r\nL 10.00-15.00'},
{'name': 'VIKERKAARE', 'type': 'bcico', 'address': 'VÕIDU PST 1, 21008 NARVA, Ida-Virumaa', 'region': 'Ida-Virumaa', 'lat': '59.3789791', 'lng': '28.1788112', 'description': 'E-R 10.00-18.00\r\nL 10.00-14.00'},
{'name': 'JÕHVI', 'type': 'bcico', 'address': 'RAKVERE 5, 41592 JÕHVI, Ida-Virumaa', 'region': 'Ida-Virumaa', 'lat': '59.3587390', 'lng': '27.4108330', 'description': 'E-R 9.00-18.00\r\nL 10.00-14.00'},
{'name': 'KOHTLA-JÄRVE', 'type': 'bcico', 'address': 'KESKALLEE 20, 30322 KOHTLA-JÄRVE, Ida-Virumaa', 'region': 'Ida-Virumaa', 'lat': '59.4011792', 'lng': '27.2822576', 'description': 'E-R 9.00-18.00\r\nL 9.00-14.00'},
{'name': 'SILLAMÄE', 'type': 'bcico', 'address': 'VIRU PST 6, 40232 SILLAMÄE, Ida-Virumaa', 'region': 'Ida-Virumaa', 'lat': '59.3925905', 'lng': '27.7766938', 'description': 'E-R 10.00-18.00\r\nL 10.00-14.00'},
{'name': 'KIVIÕLI', 'type': 'bcico', 'address': 'VIRU 9, 43122 KIVIÕLI, Ida-Virumaa', 'region': 'Ida-Virumaa', 'lat': '59.3588471', 'lng': '26.9782789', 'description': 'E-R 9.30-17.30\r\nL 9.00-14.00'},
{'name': 'KÄRDLA', 'type': 'bcico', 'address': 'KESKVÄLJAK 5A, 92414 KÄRDLA, Hiiumaa', 'region': 'Hiiumaa', 'lat': '58.9975529', 'lng': '22.7471261', 'description': 'E-R 9:00-17:00\r\n'},
{'name': 'HAAPSALU', 'type': 'bcico', 'address': 'POSTI 41A, 90507 HAAPSALU, Läänemaa', 'region': 'Läänemaa', 'lat': '58.9409117', 'lng': '23.5412763', 'description': 'E-R 9.00-17.00\r\nL 10.00-14.00'},
{'name': 'RAPLA', 'type': 'bcico', 'address': 'TALLINNA MNT 22/24, 79512 RAPLA, Raplamaa', 'region': 'Raplamaa', 'lat': '59.0036282', 'lng': '24.7933104', 'description': 'E-R 9.00-17.00\r\nL 10.00-14.00'},
{'name': 'MÄRJAMAA', 'type': 'bcico', 'address': 'KOLUVERE TEE 2, 78301 MÄRJAMAA, Raplamaa', 'region': 'Raplamaa', 'lat': '58.9060418', 'lng': '24.4391072', 'description': 'E-R 9.00-16.30\r\n'},
{'name': 'PAIDE', 'type': 'bcico', 'address': 'PÄRNU 6, 71712 PAIDE, Järvamaa', 'region': 'Järvamaa', 'lat': '58.8866213', 'lng': '25.5675651', 'description': 'E-R 9.00-18.00\r\nL 10.00-14.00'},
{'name': 'TÜRI', 'type': 'bcico', 'address': 'VILJANDI 4, 72211 TÜRI, Järvamaa', 'region': 'Järvamaa', 'lat': '58.8076203', 'lng': '25.4285742', 'description': 'K, N, R 9.00-18.00\r\n'},
{'name': 'JÕGEVA', 'type': 'bcico', 'address': 'SUUR 18A, 48303 JÕGEVA, Jõgevamaa', 'region': 'Jõgevamaa', 'lat': '58.7459239', 'lng': '26.3949338', 'description': 'E-R 9.00-17.00\r\nL 9.00-14.00'},
{'name': 'PÕLTSAMAA', 'type': 'bcico', 'address': 'SILLA 2, 48104 PÕLTSAMAA, Jõgevamaa', 'region': 'Jõgevamaa', 'lat': '58.6534223', 'lng': '25.9733865', 'description': 'E 9.00-18.00\r\nT-R 9.00-16.00'},
{'name': 'ORISSAARE', 'type': 'bcico', 'address': 'KUIVASTU MNT 33, 94601 ORISSAARE, Saaremaa', 'region': 'Saaremaa', 'lat': '58.5590918', 'lng': '23.0831333', 'description': 'E, R 9.00-17.30\r\nT-N 9.00-16.00'},
{'name': 'KURESSAARE', 'type': 'bcico', 'address': 'TALLINNA 16, 93813 KURESSAARE, Saaremaa', 'region': 'Saaremaa', 'lat': '58.2541738', 'lng': '22.4889479', 'description': 'E-R 9.00-17.00\r\nL 9.00-14.00'},
{'name': 'PÄRNU', 'type': 'bcico', 'address': 'KESKVÄLJAK 1, 80010 PÄRNU, Pärnumaa', 'region': 'Pärnumaa', 'lat': '58.3857725', 'lng': '24.4966998', 'description': 'E-R 9.00-17.00\r\nE-R 9.30-17.00'},
{'name': 'VÄNDRA', 'type': 'bcico', 'address': 'PÄRNU-PAIDE MNT 21, 87701 VÄNDRA, Pärnumaa', 'region': 'Pärnumaa', 'lat': '58.6543354', 'lng': '25.0379356', 'description': 'E-R 9.30-17.00\r\nE-R 9.00-18.00'},
{'name': 'KONTSERDIMAJA', 'type': 'bcico', 'address': 'AIDA TN 5, 80010 PÄRNU, Pärnumaa', 'region': 'Pärnumaa', 'lat': '58.3885815', 'lng': '24.5551705', 'description': 'E-R 9.00-18.00\r\nL 9.00-15.00'},
{'name': 'KAUBAMAJAKA', 'type': 'bcico', 'address': 'PAPINIIDU 10, 80042 PÄRNU, Pärnumaa', 'region': 'Pärnumaa', 'lat': '58.3722306', 'lng': '24.5510352', 'description': 'E-R 10.00-18.00\r\nL 10.00-15.00'},
{'name': 'MAXIMA', 'type': 'bcico', 'address': 'RIIA MNT 131, 80042 PÄRNU, Pärnumaa', 'region': 'Pärnumaa', 'lat': '58.3696711', 'lng': '24.5482488', 'description': 'E-R 10.00-18.00\r\nL 10.00-15.00'},
{'name': 'ABJA-PALUOJA', 'type': 'bcico', 'address': 'PÄRNU 19, 69403 ABJA-PALUOJA, Viljandimaa', 'region': 'Viljandimaa', 'lat': '58.1262325', 'lng': '25.3546296', 'description': 'E-R 9.00-16.30\r\nE-R 9.00-17.00'},
{'name': 'VILJANDI', 'type': 'bcico', 'address': 'TALLINNA 7, 71020 VILJANDI, Viljandimaa', 'region': 'Viljandimaa', 'lat': '58.3640881', 'lng': '25.5961493', 'description': 'E-R 9.00-17.00\r\nL 9.00-14.00'},
{'name': 'ELVA', 'type': 'bcico', 'address': 'KESK 32, 61507 ELVA, Tartumaa', 'region': 'Tartumaa', 'lat': '58.2233703', 'lng': '26.4176386', 'description': 'E 9.00-18.00\r\nT-R 9.00-16.00'},
{'name': 'ANNELINNA', 'type': 'bcico', 'address': 'KALDA TEE 1C, 50703 TARTU, Tartumaa', 'region': 'Tartumaa', 'lat': '58.3740623', 'lng': '26.7509691', 'description': 'E-R 10.00-19.00\r\nL 10.00-16.00'},
{'name': 'LÕUNAKESKUSE', 'type': 'bcico', 'address': 'RINGTEE 75, 50501 TARTU, Tartumaa', 'region': 'Tartumaa', 'lat': '58.3606393', 'lng': '26.6781802', 'description': 'E-R 10.00-20.00\r\nL 10.00-18.00'},
{'name': 'TARTU KAUBAMAJA', 'type': 'bcico', 'address': 'RIIA 1, 51013 TARTU, Tartumaa', 'region': 'Tartumaa', 'lat': '58.3774381', 'lng': '26.7276934', 'description': 'E-R 9.00-19.00\r\nL 9.00-16.00'},
{'name': 'DORPAT', 'type': 'bcico', 'address': 'TURU 1, 51014 TARTU, Tartumaa', 'region': 'Tartumaa', 'lat': '58.3770040', 'lng': '26.7305686', 'description': 'E-R 9.00-18.00\r\nL SULETUD'},
{'name': 'TÕRVA', 'type': 'bcico', 'address': 'VALGA MNT 1, 68605 TÕRVA, Valgamaa', 'region': 'Valgamaa', 'lat': '58.0028632', 'lng': '25.9217250', 'description': 'E, K, R 9.00-17.00\r\nE-R 9.00-17.00'},
{'name': 'VALGA', 'type': 'bcico', 'address': 'KESK 10, 68203 VALGA, Valgamaa', 'region': 'Valgamaa', 'lat': '57.7775128', 'lng': '26.0341966', 'description': 'E-R 9.00-17.00\r\nL 9.00-14.00'},
{'name': 'OTEPÄÄ', 'type': 'bcico', 'address': 'LIPUVÄLJAK 4, 67403 OTEPÄÄ, Valgamaa', 'region': 'Valgamaa', 'lat': '58.0574031', 'lng': '26.4955725', 'description': 'E 9.00-18.00\r\nT-R 9.00-16.00'},
{'name': 'PÕLVA', 'type': 'bcico', 'address': 'KESK 11, 63308 PÕLVA, Põlvamaa', 'region': 'Põlvamaa', 'lat': '58.0543399', 'lng': '27.0566693', 'description': 'E-R 9.00-17.00\r\nL 9.00-14.00'},
{'name': 'RÄPINA', 'type': 'bcico', 'address': 'KOOLI 1, 64504 RÄPINA, Põlvamaa', 'region': 'Põlvamaa', 'lat': '58.0970257', 'lng': '27.4639845', 'description': 'E-N 9.00-16.00\r\nR 9.00-18.00'},
{'name': 'VÕRU', 'type': 'bcico', 'address': 'VABADUSE 10A, 65609 VÕRU, Võrumaa', 'region': 'Võrumaa', 'lat': '57.8457298', 'lng': '26.9980237', 'description': 'E-R 9.00-17.00\r\nL 9.00-14.00'},
{'name': 'SÕLE', 'type': 'bcico', 'address': 'KARI 4, 10313 TALLINN, Põhja-Tallinn', 'region': 'Põhja-Tallinn', 'lat': '59.4481602', 'lng': '24.6965679', 'description': 'E-R 10.00-18.00\r\nL 10.00-14.00'},
{'name': 'PIRITA SELVERI', 'type': 'bcico', 'address': 'RUMMU TEE 4, 11911 TALLINN, Pirita', 'region': 'Pirita', 'lat': '59.4628980', 'lng': '24.8278626', 'description': 'E-R 10.00-20.00\r\nL 10.00-15.00'},
{'name': 'ÕISMÄE', 'type': 'bcico', 'address': 'ÕISMÄE TEE 1B, 13514 TALLINN, Haabersti', 'region': 'Haabersti', 'lat': '59.4121416', 'lng': '24.6549841', 'description': 'E-R 10.00-17.00\r\nE-R 10.00-20.00'},
{'name': 'ROCCA AL MARE', 'type': 'bcico', 'address': 'PALDISKI MNT 102, 13522 TALLINN, Haabersti', 'region': 'Haabersti', 'lat': '59.4244791', 'lng': '24.6500642', 'description': 'E-R 10.00-20.00\r\n'},
{'name': 'KRISTIINE KK', 'type': 'bcico', 'address': 'ENDLA 45, 10615 TALLINN, Kristiine', 'region': 'Kristiine', 'lat': '59.4278874', 'lng': '24.7236110', 'description': 'E-R 10.00-20.00\r\nL 10.00-17.00'},
{'name': 'JÄRVE KESKUS', 'type': 'bcico', 'address': 'PÄRNU MNT 238, 11624 TALLINN, Kristiine', 'region': 'Kristiine', 'lat': '59.3918666', 'lng': '24.7203988', 'description': 'E-R 10.00-20.00\r\nL 10.00-17.00'},
{'name': 'LIIVALAIA', 'type': 'bcico', 'address': 'LIIVALAIA 8, 15040 TALLINN, Kesklinn', 'region': 'Kesklinn', 'lat': '59.4275374', 'lng': '24.7455502', 'description': 'E-R 9.00-17.00\r\nE-R 10.00-18.00'},
{'name': 'KAWE', 'type': 'bcico', 'address': 'PÄRNU MNT. 15, 10141 TALLINN, Kesklinn', 'region': 'Kesklinn', 'lat': '59.4264378', 'lng': '24.7427265', 'description': 'E-R 10.00-18.00\r\nE-R 9.00-18.00'},
{'name': 'RÄVALA', 'type': 'bcico', 'address': 'RÄVALA PST 5, 10143 TALLINN, Kesklinn', 'region': 'Kesklinn', 'lat': '59.4334380', 'lng': '24.7550406', 'description': 'E-R 9.00-18.00\r\nE-R 10.00-19.00'},
{'name': 'FOORUM', 'type': 'bcico', 'address': 'HOBUJAAMA 10/NARVA MNT 5, 10151 TALLINN, Kesklinn', 'region': 'Kesklinn', 'lat': '59.4372788', 'lng': '24.7585178', 'description': 'E-R 10.00-19.00\r\nL 11.00-15.00'},
{'name': 'PAE', 'type': 'bcico', 'address': 'PAE TN 80, 13620 TALLINN, Lasnamäe', 'region': 'Lasnamäe', 'lat': '59.4343205', 'lng': '24.8176552', 'description': 'E-R 10.00-18.00\r\nE-R 10.00-18.00'},
{'name': 'MUSTAKIVI', 'type': 'bcico', 'address': 'MAHTRA 27, 13811 TALLINN, Lasnamäe', 'region': 'Lasnamäe', 'lat': '59.4427838', 'lng': '24.8763120', 'description': 'E-R 10.00-18.00\r\nE-R 10.00-20.00'},
{'name': 'ÜLEMISTE', 'type': 'bcico', 'address': 'SUUR-SÕJAMÄE 4, 11415 TALLINN, Lasnamäe', 'region': 'Lasnamäe', 'lat': '59.4230240', 'lng': '24.7957187', 'description': 'E-R 10.00-20.00\r\nL-P 10.00-20.00'},
{'name': 'SIKUPILLI', 'type': 'bcico', 'address': 'TARTU MNT 87, 10112 TALLINN, Lasnamäe', 'region': 'Lasnamäe', 'lat': '59.4251787', 'lng': '24.7799424', 'description': 'E-R 10.00-21.00\r\nL 10.00-17.00'},
{'name': 'LASNAMÄE CENTRUMI', 'type': 'bcico', 'address': 'MUSTAKIVI TEE 13, 13912 TALLINN, Lasnamäe', 'region': 'Lasnamäe', 'lat': '59.4406383', 'lng': '24.8677953', 'description': 'E-R 10.00-20.00\r\nL-P 10.00-16.00'},
{'name': 'MARIENTHALI', 'type': 'bcico', 'address': 'MUSTAMÄE TEE 16, 10617 TALLINN, Mustamäe', 'region': 'Mustamäe', 'lat': '59.4222054', 'lng': '24.6979337', 'description': 'E-R 10.00-19.00\r\nL 10.00-15.00'},
{'name': 'SÕPRUSE PST.', 'type': 'bcico', 'address': 'SÕPRUSE PST 237/239, 13412 TALLINN, Mustamäe', 'region': 'Mustamäe', 'lat': '59.3992287', 'lng': '24.6858688', 'description': 'E-R 10.00-18.00\r\n'},
{'name': 'NÕMME', 'type': 'bcico', 'address': 'TURU PLATS 5/7, 11611 TALLINN, Nõmme', 'region': 'Nõmme', 'lat': '59.3890285', 'lng': '24.6830002', 'description': 'E-R 10.00-18.00\r\n'},
{'name': 'Statoil Keila', 'type': 'co', 'address': 'Ülejõe tee 1, Harjumaa', 'region': 'Harjumaa', 'lat': '59.3098993', 'lng': '24.4400165', 'description': '24h'},
{'name': 'Saue kontor', 'type': 'co', 'address': 'Pärnasalu 11, Harjumaa', 'region': 'Harjumaa', 'lat': '59.3212286', 'lng': '24.5568502', 'description': '24h'},
{'name': 'Maardu Säästumarket', 'type': 'co', 'address': 'Keemikute tee 41, Harjumaa', 'region': 'Harjumaa', 'lat': '59.483037', 'lng': '25.017543', 'description': '24h'},
{'name': 'Edu kauplus', 'type': 'co', 'address': 'Aruküla tee 29, Harjumaa', 'region': 'Harjumaa', 'lat': '59.3589463', 'lng': '24.9126721', 'description': '24h'},
{'name': 'Paldiski Konsum', 'type': 'co', 'address': 'Rae 38, Harjumaa', 'region': 'Harjumaa', 'lat': '59.3523745', 'lng': '24.0557338', 'description': '24h'},
{'name': 'Rummu kauplus', 'type': 'co', 'address': 'Haapsalu mnt 14, Harjumaa', 'region': 'Harjumaa', 'lat': '59.3074622', 'lng': '24.4132209', 'description': '24h'},
{'name': 'Rõõmu Kaubamaja', 'type': 'co', 'address': 'Haapsalu mnt 57b, Harjumaa', 'region': 'Harjumaa', 'lat': '59.3077758', 'lng': '24.4003404', 'description': '24h'},
{'name': 'Kauplus Laura', 'type': 'co', 'address': 'Pikk 17, Harjumaa', 'region': 'Harjumaa', 'lat': '59.1857073', 'lng': '25.1652479', 'description': '24h'},
{'name': 'Sagro', 'type': 'co', 'address': 'Veskitammi 8, Harjumaa', 'region': 'Harjumaa', 'lat': '59.3778773', 'lng': '24.5423520', 'description': '24h'},
{'name': 'Saue Kaubakeskus', 'type': 'co', 'address': 'Ridva 15, Harjumaa', 'region': 'Harjumaa', 'lat': '59.3244978', 'lng': '24.5525963', 'description': '24h'},
{'name': 'Grossi Toidukaubad', 'type': 'co', 'address': 'Rohuaia 6, Harjumaa', 'region': 'Harjumaa', 'lat': '59.5804117', 'lng': '25.7268261', 'description': ''},
{'name': 'Riisipere kauplus-tankla', 'type': 'co', 'address': 'Riisipere, Harjumaa', 'region': 'Harjumaa', 'lat': '59.1075650', 'lng': '24.3141249', 'description': ''},
{'name': 'Saku kauplus', 'type': 'co', 'address': 'Pargi 2, Harjumaa', 'region': 'Harjumaa', 'lat': '59.3105304', 'lng': '24.4119178', 'description': '24h'},
{'name': 'Statoil Viimsi', 'type': 'co', 'address': 'Randvere tee 1, Harjumaa', 'region': 'Harjumaa', 'lat': '59.4742629', 'lng': '24.8406778', 'description': '24h'},
{'name': 'Maksimarket Laagri', 'type': 'co', 'address': 'Pärnu mnt 558a, Harjumaa', 'region': 'Harjumaa', 'lat': '59.3433841', 'lng': '24.6181567', 'description': '24h'},
{'name': 'Aruküla Konsum', 'type': 'co', 'address': 'Tallinna mnt 8, Harjumaa', 'region': 'Harjumaa', 'lat': '59.4273463', 'lng': '24.6663217', 'description': '24h'},
{'name': 'Viimsi Kaubanduskeskus', 'type': 'co', 'address': 'Randvere tee 6, Harjumaa', 'region': 'Harjumaa', 'lat': '59.4747112', 'lng': '24.8431651', 'description': '24h'},
{'name': 'Rae vallavalitsus', 'type': 'co', 'address': 'Aruküla tee 9, Harjumaa', 'region': 'Harjumaa', 'lat': '59.3548511', 'lng': '24.8943510', 'description': '24h'},
{'name': 'Kiili pood', 'type': 'co', 'address': 'Nabala tee 4, Harjumaa', 'region': 'Harjumaa', 'lat': '59.3077302', 'lng': '24.8376953', 'description': '24h'},
{'name': 'Säästumarket Saku', 'type': 'co', 'address': 'Tallinna mnt 2, Harjumaa', 'region': 'Harjumaa', 'lat': '59.4216892', 'lng': '24.7888291', 'description': '24h'},
{'name': 'Tabasalu Rimi', 'type': 'co', 'address': 'Klooga mnt 10A, Harjumaa', 'region': 'Harjumaa', 'lat': '59.4295463', 'lng': '24.5446413', 'description': '24h'},
{'name': 'Kehra Konsum', 'type': 'co', 'address': 'Kose mnt 9, Harjumaa', 'region': 'Harjumaa', 'lat': '59.2449242', 'lng': '25.3248760', 'description': '24h'},
{'name': 'Kose kontor', 'type': 'co', 'address': 'Pikk 22, Harjumaa', 'region': 'Harjumaa', 'lat': '59.4386926', 'lng': '24.7461037', 'description': ''},
{'name': 'Maardu turg', 'type': 'co', 'address': 'Keemikute 25, Harjumaa', 'region': 'Harjumaa', 'lat': '59.4798712', 'lng': '25.0160140', 'description': '24h'},
{'name': 'Kallavere kontor', 'type': 'co', 'address': 'Nurga 3, Harjumaa', 'region': 'Harjumaa', 'lat': '59.4863061', 'lng': '25.0198758', 'description': '24h'},
{'name': 'Kallavere kontor', 'type': 'co', 'address': 'Nurga 3, Harjumaa', 'region': 'Harjumaa', 'lat': '59.4863061', 'lng': '25.0198758', 'description': '24h'},
{'name': 'Kuusalu Konsum', 'type': 'co', 'address': 'Kuusalu tee 13, Harjumaa', 'region': 'Harjumaa', 'lat': '59.4457764', 'lng': '25.4410969', 'description': '24h'},
{'name': 'Keila kontor', 'type': 'co', 'address': 'Keskväljak 10, Harjumaa', 'region': 'Harjumaa', 'lat': '59.4460964', 'lng': '25.4493962', 'description': '24h'},
{'name': 'Keila kontor', 'type': 'co', 'address': 'Keskväljak 10, Harjumaa', 'region': 'Harjumaa', 'lat': '59.4460964', 'lng': '25.4493962', 'description': '24h'},
{'name': 'Grossi toidukaubad', 'type': 'co', 'address': 'Kaluri tee 3, Harjumaa', 'region': 'Harjumaa', 'lat': '59.5100933', 'lng': '24.8287739', 'description': '24h'},
{'name': 'Loksa TÜ kauplus', 'type': 'co', 'address': 'Tallinna mnt 36, Harjumaa', 'region': 'Harjumaa', 'lat': '59.3582603', 'lng': '25.0823313', 'description': '24h'},
{'name': 'Peetri Pizza', 'type': 'co', 'address': 'Ohtu tee 2, Harjumaa', 'region': 'Harjumaa', 'lat': '59.3070532', 'lng': '24.4169523', 'description': '24h'},
{'name': 'Kauplus Maheda', 'type': 'co', 'address': 'Võsu mnt 5, Lääne-Virumaa', 'region': 'Lääne-Virumaa', 'lat': '59.4345432', 'lng': '26.2663895', 'description': '24h'},
{'name': 'Tapa kontor', 'type': 'co', 'address': 'Pikk 15, Lääne-Virumaa', 'region': 'Lääne-Virumaa', 'lat': '59.2626421', 'lng': '25.9631194', 'description': '24h'},
{'name': 'Kauplus Pilleriin', 'type': 'co', 'address': 'Tehnika tn 24, Lääne-Virumaa', 'region': 'Lääne-Virumaa', 'lat': '59.162721', 'lng': '26.112292', 'description': '24h'},
{'name': 'Põhjakeskus', 'type': 'co', 'address': 'Tõrremäe küla, Lääne-Virumaa', 'region': 'Lääne-Virumaa', 'lat': '59.35803', 'lng': '26.333582', 'description': ''},
{'name': 'Simuna Rahvamaja', 'type': 'co', 'address': 'Lai 5, Lääne-Virumaa', 'region': 'Lääne-Virumaa', 'lat': '59.0458595', 'lng': '26.4029689', 'description': ''},
{'name': 'Rakvere kontor', 'type': 'co', 'address': 'Laada 27, Lääne-Virumaa', 'region': 'Lääne-Virumaa', 'lat': '59.3485461', 'lng': '26.3632853', 'description': '24h'},
{'name': 'Kauplus Nord', 'type': 'co', 'address': 'Tallinna mnt 68, Lääne-Virumaa', 'region': 'Lääne-Virumaa', 'lat': '59.4343134', 'lng': '26.2536262', 'description': '24h'},
{'name': 'Kauplus Raja', 'type': 'co', 'address': 'Ilu 2, Lääne-Virumaa', 'region': 'Lääne-Virumaa', 'lat': '59.3515643', 'lng': '26.3416748', 'description': '24h'},
{'name': 'Kauplus Konsum', 'type': 'co', 'address': 'Mäe 33, Lääne-Virumaa', 'region': 'Lääne-Virumaa', 'lat': '59.5032219', 'lng': '26.5036385', 'description': '24h'},
{'name': 'Kadrina Konsum', 'type': 'co', 'address': 'Viitna tee 4, Lääne-Virumaa', 'region': 'Lääne-Virumaa', 'lat': '59.3433104', 'lng': '26.1291063', 'description': '24h'},
{'name': 'Väike-Maarja kontor', 'type': 'co', 'address': 'Pikk 16, Lääne-Virumaa', 'region': 'Lääne-Virumaa', 'lat': '59.2611536', 'lng': '25.9638385', 'description': '24h'},
{'name': 'Kroonikeskus', 'type': 'co', 'address': 'Laada 29, Lääne-Virumaa', 'region': 'Lääne-Virumaa', 'lat': '59.3493725', 'lng': '26.3623833', 'description': ''},
{'name': 'Seminari kauplus', 'type': 'co', 'address': 'Seminari 3, Lääne-Virumaa', 'region': 'Lääne-Virumaa', 'lat': '59.3440027', 'lng': '26.3682455', 'description': '24h'},
{'name': 'Säästumarket Rakvere', 'type': 'co', 'address': 'Vilde 8, Lääne-Virumaa', 'region': 'Lääne-Virumaa', 'lat': '59.3464819', 'lng': '26.3651219', 'description': '24h'},
{'name': 'Kauplus Lilleoru', 'type': 'co', 'address': 'Tartu mnt 55, Lääne-Virumaa', 'region': 'Lääne-Virumaa', 'lat': '59.2793308', 'lng': '26.4279989', 'description': '24h'},
{'name': 'Grossi Toidukaubad', 'type': 'co', 'address': 'Kasemäe 12, Lääne-Virumaa', 'region': 'Lääne-Virumaa', 'lat': '59.5001866', 'lng': '26.5162044', 'description': '24h'},
{'name': 'Statoil Näpi', 'type': 'co', 'address': 'Näpi küla, Lääne-Virumaa', 'region': 'Lääne-Virumaa', 'lat': '59.360846', 'lng': '26.411948', 'description': '24h'},
{'name': 'Statoil Väljavahi', 'type': 'co', 'address': 'Tõrremäe küla, Lääne-Virumaa', 'region': 'Lääne-Virumaa', 'lat': '59.357351', 'lng': '26.332855', 'description': '24h'},
{'name': 'Rakke Grossi Toidukaubad', 'type': 'co', 'address': 'Faehlmanni 38, Lääne-Virumaa', 'region': 'Lääne-Virumaa', 'lat': '58.9897819', 'lng': '26.2359545', 'description': '24h'},
{'name': 'Tapa Kaubakekus', 'type': 'co', 'address': 'Jaama 1, Lääne-Virumaa', 'region': 'Lääne-Virumaa', 'lat': '59.4997671', 'lng': '26.5295714', 'description': '24h'},
{'name': 'Virona keskus', 'type': 'co', 'address': 'Järveküla tee 50, Ida-Virumaa', 'region': 'Ida-Virumaa', 'lat': '59.3983161', 'lng': '27.2868723', 'description': '24h'},
{'name': 'Jõhvi Ärikeskus', 'type': 'co', 'address': 'Keskväljak 4, Ida-Virumaa', 'region': 'Ida-Virumaa', 'lat': '59.3582096', 'lng': '27.4138310', 'description': ''},
{'name': 'Iidla postkontor', 'type': 'co', 'address': 'Maleva 25, Ida-Virumaa', 'region': 'Ida-Virumaa', 'lat': '59.3284936', 'lng': '27.4201046', 'description': '24h'},
{'name': 'Jõhvi Selver', 'type': 'co', 'address': 'Narva mnt 4B, Ida-Virumaa', 'region': 'Ida-Virumaa', 'lat': '59.3922504', 'lng': '28.1303976', 'description': ''},
{'name': 'OG Toidukaubad', 'type': 'co', 'address': 'Tehase 23, Ida-Virumaa', 'region': 'Ida-Virumaa', 'lat': '59.4498754', 'lng': '26.8666816', 'description': '24h'},
{'name': 'Kauplus Järve', 'type': 'co', 'address': 'Ridaküla 1, Ida-Virumaa', 'region': 'Ida-Virumaa', 'lat': '59.4376932', 'lng': '26.8828078', 'description': '24h'},
{'name': 'Vikerkaare kontor', 'type': 'co', 'address': 'Võidu pst 1, Ida-Virumaa', 'region': 'Ida-Virumaa', 'lat': '58.9852866', 'lng': '26.8642739', 'description': '24h'},
{'name': 'Prestone Kaubamaja', 'type': 'co', 'address': 'Järveküla tee 87, Ida-Virumaa', 'region': 'Ida-Virumaa', 'lat': '59.4026728', 'lng': '27.2985179', 'description': ''},
{'name': 'Pähklimäe turg', 'type': 'co', 'address': 'Pähklimäe 2, Ida-Virumaa', 'region': 'Ida-Virumaa', 'lat': '59.3870091', 'lng': '28.1731081', 'description': '24h'},
{'name': 'Sillamäe Maxima', 'type': 'co', 'address': 'Viru pst 35, Ida-Virumaa', 'region': 'Ida-Virumaa', 'lat': '59.3910846', 'lng': '27.7916581', 'description': '24h'},
{'name': 'Kohtla-Järve Selver', 'type': 'co', 'address': 'Järveküla tn 68, Ida-Virumaa', 'region': 'Ida-Virumaa', 'lat': '59.40001', 'lng': '27.288108', 'description': '24h'},
{'name': 'Narva Säästumarket', 'type': 'co', 'address': 'Rakvere mnt 71, Ida-Virumaa', 'region': 'Ida-Virumaa', 'lat': '58.9834709', 'lng': '26.8411454', 'description': '24h'},
{'name': 'Prisma peremarket', 'type': 'co', 'address': 'Kangelaste 29, Ida-Virumaa', 'region': 'Ida-Virumaa', 'lat': '59.3836746', 'lng': '28.1793430', 'description': '24h'},
{'name': 'Kerese Selver', 'type': 'co', 'address': 'Kerese 3, Ida-Virumaa', 'region': 'Ida-Virumaa', 'lat': '59.3761089', 'lng': '28.1911872', 'description': ''},
{'name': 'Comarket', 'type': 'co', 'address': 'Narva mnt 38a, Ida-Virumaa', 'region': 'Ida-Virumaa', 'lat': '59.3482171', 'lng': '28.1700068', 'description': '24h'},
{'name': 'Sillamäe postkontor', 'type': 'co', 'address': 'Pavlovi 2, Ida-Virumaa', 'region': 'Ida-Virumaa', 'lat': '59.3937075', 'lng': '27.7755557', 'description': '24h'},
{'name': 'Statoil Jõhvi', 'type': 'co', 'address': 'Rakvere 40, Ida-Virumaa', 'region': 'Ida-Virumaa', 'lat': '59.3674385', 'lng': '27.3923710', 'description': '24h'},
{'name': 'Jõhvi kontor', 'type': 'co', 'address': 'Rakvere tee 5, Ida-Virumaa', 'region': 'Ida-Virumaa', 'lat': '59.3491062', 'lng': '26.3624132', 'description': '24h'},
{'name': 'Ahtme Kaubakeskus', 'type': 'co', 'address': 'Estonia pst 30a, Ida-Virumaa', 'region': 'Ida-Virumaa', 'lat': '59.3293726', 'lng': '27.4264491', 'description': ''},
{'name': 'Kiviõli kaubakeskus', 'type': 'co', 'address': 'Metsa 3, Ida-Virumaa', 'region': 'Ida-Virumaa', 'lat': '59.1030534', 'lng': '27.3035165', 'description': '24h'},
{'name': 'lisaku ostukeskus', 'type': 'co', 'address': 'Tartu mnt,46, Ida-Virumaa', 'region': 'Ida-Virumaa', 'lat': '59.1000077', 'lng': '27.3110014', 'description': '24h'},
{'name': 'Kauplus Kalev', 'type': 'co', 'address': 'Kalevi 27, Ida-Virumaa', 'region': 'Ida-Virumaa', 'lat': '59.4055819', 'lng': '27.2835986', 'description': '24h'},
{'name': 'Maxima Kohtla-Järve', 'type': 'co', 'address': 'Mõisa tee 3, Ida-Virumaa', 'region': 'Ida-Virumaa', 'lat': '59.4062951', 'lng': '27.2908932', 'description': '24h'},
{'name': 'Konsum', 'type': 'co', 'address': 'Outokumpu 13, Ida-Virumaa', 'region': 'Ida-Virumaa', 'lat': '59.3962426', 'lng': '27.2949156', 'description': '24h'},
{'name': 'Jõhvi kontor', 'type': 'co', 'address': 'Rakvere tee 5, Ida-Virumaa', 'region': 'Ida-Virumaa', 'lat': '59.3491062', 'lng': '26.3624132', 'description': '24h'},
{'name': 'Kauplus Edu', 'type': 'co', 'address': 'Keskpuiestee 31, Ida-Virumaa', 'region': 'Ida-Virumaa', 'lat': '59.3559831', 'lng': '26.9740087', 'description': '24h'},
{'name': 'Iidla kontor', 'type': 'co', 'address': 'Maleva 23, Ida-Virumaa', 'region': 'Ida-Virumaa', 'lat': '59.3284936', 'lng': '27.4201046', 'description': '24h'},
{'name': 'Narva Centrum', 'type': 'co', 'address': 'Tallinna mnt 47, Ida-Virumaa', 'region': 'Ida-Virumaa', 'lat': '59.3904908', 'lng': '28.1140419', 'description': '24h'},
{'name': 'Statoil Narva', 'type': 'co', 'address': 'Tallinna mnt 37, Ida-Virumaa', 'region': 'Ida-Virumaa', 'lat': '59.3904908', 'lng': '28.1140419', 'description': '24h'},
{'name': 'Soldino', 'type': 'co', 'address': 'Mõisa 8, Ida-Virumaa', 'region': 'Ida-Virumaa', 'lat': '59.3773538', 'lng': '28.1661592', 'description': '24h'},
{'name': 'Säästumarket Narva', 'type': 'co', 'address': 'Tallinna mnt 13, Ida-Virumaa', 'region': 'Ida-Virumaa', 'lat': '59.3904908', 'lng': '28.1140419', 'description': '24h'},
{'name': 'Kreenholmi Maxima', 'type': 'co', 'address': 'Kreenholmi 39h, Ida-Virumaa', 'region': 'Ida-Virumaa', 'lat': '59.3661959', 'lng': '28.1874687', 'description': '24h'},
{'name': 'Gigant kauplus', 'type': 'co', 'address': 'Pushkini 4A, Ida-Virumaa', 'region': 'Ida-Virumaa', 'lat': '59.371156', 'lng': '28.19765', 'description': '24h'},
{'name': 'Maxima Narva-Jõesuu', 'type': 'co', 'address': 'Vabaduse 16, Ida-Virumaa', 'region': 'Ida-Virumaa', 'lat': '59.4624790', 'lng': '28.0415170', 'description': '24h'},
{'name': 'Kohtla-Järve kontor', 'type': 'co', 'address': 'Keskallee 20, Ida-Virumaa', 'region': 'Ida-Virumaa', 'lat': '59.4011792', 'lng': '27.2822576', 'description': '24h'},
{'name': 'Kauplus Tuhat-pisiasja', 'type': 'co', 'address': 'Kangelaste 3a, Ida-Virumaa', 'region': 'Ida-Virumaa', 'lat': '59.3829000', 'lng': '28.1801701', 'description': '24h'},
{'name': 'Maxima Pähklimäe', 'type': 'co', 'address': 'Pähklimäe 6, Ida-Virumaa', 'region': 'Ida-Virumaa', 'lat': '59.3866652', 'lng': '28.1684074', 'description': '24h'},
{'name': 'Statoil Narva linnapiiri', 'type': 'co', 'address': 'Tallinna mnt 64, Ida-Virumaa', 'region': 'Ida-Virumaa', 'lat': '59.3904908', 'lng': '28.1140419', 'description': '24h'},
{'name': 'Astri Kaubakeskus', 'type': 'co', 'address': 'Tallinna mnt 41, Ida-Virumaa', 'region': 'Ida-Virumaa', 'lat': '59.3904908', 'lng': '28.1140419', 'description': ''},
{'name': 'Kiviõli kontor', 'type': 'co', 'address': 'Viru 9, Ida-Virumaa', 'region': 'Ida-Virumaa', 'lat': '59.3588471', 'lng': '26.9782789', 'description': '24h'},
{'name': 'Sillamäe Teenindusmaja', 'type': 'co', 'address': 'Kesk 19, Ida-Virumaa', 'region': 'Ida-Virumaa', 'lat': '59.3967483', 'lng': '27.7596078', 'description': '24h'},
{'name': 'Maxima Kreenholmi', 'type': 'co', 'address': 'Kreenholmi 52/54, Ida-Virumaa', 'region': 'Ida-Virumaa', 'lat': '59.3643070', 'lng': '28.1880490', 'description': '24h'},
{'name': 'Sinimäe ärimaja', 'type': 'co', 'address': 'Aia 1, Ida-Virumaa', 'region': 'Ida-Virumaa', 'lat': '59.0960421', 'lng': '27.3150980', 'description': '24h'},
{'name': 'Narva kontor', 'type': 'co', 'address': 'Tallinna mnt 19c, Ida-Virumaa', 'region': 'Ida-Virumaa', 'lat': '59.3904908', 'lng': '28.1140419', 'description': '24h'},
{'name': 'Narva kontor', 'type': 'co', 'address': 'Tallinna mnt 19c, Ida-Virumaa', 'region': 'Ida-Virumaa', 'lat': '59.3904908', 'lng': '28.1140419', 'description': '24h'},
{'name': 'Sillamäe kontor', 'type': 'co', 'address': 'Viru pst 6, Ida-Virumaa', 'region': 'Ida-Virumaa', 'lat': '59.3925905', 'lng': '27.7766938', 'description': '24h'},
{'name': 'Kauplus Tempo', 'type': 'co', 'address': 'Tallinna mnt 54, Ida-Virumaa', 'region': 'Ida-Virumaa', 'lat': '59.3904908', 'lng': '28.1140419', 'description': '24h'},
{'name': 'Kõrgessaare Tervisemaja', 'type': 'co', 'address': 'Tööstuse tee 26, Hiiumaa', 'region': 'Hiiumaa', 'lat': '58.9758274', 'lng': '22.4653837', 'description': '24h'},
{'name': 'Hiiumaa Selver', 'type': 'co', 'address': 'Linnumäe küla, Hiiumaa', 'region': 'Hiiumaa', 'lat': '58.989403', 'lng': '22.763683', 'description': '24h'},
{'name': 'Kärdla kontor', 'type': 'co', 'address': 'Keskväljak 5a, Hiiumaa', 'region': 'Hiiumaa', 'lat': '58.9975529', 'lng': '22.7471261', 'description': '24h'},
{'name': 'Tormi keskus', 'type': 'co', 'address': 'Heltermaa mnt 14a, Hiiumaa', 'region': 'Hiiumaa', 'lat': '58.9914084', 'lng': '22.7540755', 'description': '24h'},
{'name': 'Konsum Käina', 'type': 'co', 'address': 'Hiiu mnt 9, Hiiumaa', 'region': 'Hiiumaa', 'lat': '58.8276632', 'lng': '22.7764523', 'description': '24h'},
{'name': 'Emmaste Bussijaam', 'type': 'co', 'address': 'Emmaste vald, Hiiumaa', 'region': 'Hiiumaa', 'lat': '58.7042803', 'lng': '22.5934335', 'description': '24h'},
{'name': 'Haapsalu kaubamaja', 'type': 'co', 'address': 'Tallinna mnt.1, Läänemaa', 'region': 'Läänemaa', 'lat': '58.9526673', 'lng': '23.7251464', 'description': '24h'},
{'name': 'Briis sisustussalong', 'type': 'co', 'address': 'Karja 25, Läänemaa', 'region': 'Läänemaa', 'lat': '58.9457721', 'lng': '23.5374450', 'description': '24h'},
{'name': 'Uuemõisa Konsum', 'type': 'co', 'address': 'Tallinna mnt 84, Läänemaa', 'region': 'Läänemaa', 'lat': '58.9410858', 'lng': '23.5822816', 'description': ''},
{'name': 'Taebla kauplus', 'type': 'co', 'address': 'Nurme 23, Läänemaa', 'region': 'Läänemaa', 'lat': '58.9546619', 'lng': '23.7409400', 'description': ''},
{'name': 'Risti TÜ kauplus', 'type': 'co', 'address': 'Haapsalu mnt 1, Läänemaa', 'region': 'Läänemaa', 'lat': '58.9982528', 'lng': '24.0564072', 'description': '24h'},
{'name': 'Haapsalu kontor', 'type': 'co', 'address': 'Posti 41a, Läänemaa', 'region': 'Läänemaa', 'lat': '58.9409117', 'lng': '23.5412763', 'description': '24h'},
{'name': 'Statoil Uuemõisa', 'type': 'co', 'address': 'Tallinna mnt 75a, Läänemaa', 'region': 'Läänemaa', 'lat': '58.9383518', 'lng': '23.5742822', 'description': '24h'},
{'name': 'E-Ehituskeskus', 'type': 'co', 'address': 'Tallinna mnt 29, Läänemaa', 'region': 'Läänemaa', 'lat': '58.5809435', 'lng': '23.5242240', 'description': '24h'},
{'name': 'Virtsu sadamahoone', 'type': 'co', 'address': 'Virtsu, Läänemaa', 'region': 'Läänemaa', 'lat': '58.5784866', 'lng': '23.5236888', 'description': '24h'},
{'name': 'Märjamaa kontor', 'type': 'co', 'address': 'Koluvere tee 2, Raplamaa', 'region': 'Raplamaa', 'lat': '58.911901', 'lng': '24.431378', 'description': '24h'},
{'name': 'Kohila Kaubakeskus', 'type': 'co', 'address': 'Lõuna 2, Raplamaa', 'region': 'Raplamaa', 'lat': '59.1673621', 'lng': '24.7499372', 'description': '24h'},
{'name': 'Statoil Urge', 'type': 'co', 'address': 'Urge küla, Raplamaa', 'region': 'Raplamaa', 'lat': '59.190664', 'lng': '24.806249', 'description': '24h'},
{'name': 'Rapla kontor', 'type': 'co', 'address': 'Tallinna mnt 22/24, Raplamaa', 'region': 'Raplamaa', 'lat': '59.0036282', 'lng': '24.7933104', 'description': '24h'},
{'name': 'Järvakandi', 'type': 'co', 'address': 'Pargi 1, Raplamaa', 'region': 'Raplamaa', 'lat': '58.9227463', 'lng': '24.8730024', 'description': '24h'},
{'name': 'Maxima', 'type': 'co', 'address': 'Tallinna mnt 50, Raplamaa', 'region': 'Raplamaa', 'lat': '58.9980260', 'lng': '24.7913959', 'description': '24h'},
{'name': 'Nore kaubanduskeskus', 'type': 'co', 'address': 'Viljandi mnt 72, Raplamaa', 'region': 'Raplamaa', 'lat': '58.9972056', 'lng': '24.8104912', 'description': '24h'},
{'name': 'Statoil Märjamaa', 'type': 'co', 'address': 'Orgita küla, Raplamaa', 'region': 'Raplamaa', 'lat': '58.921132', 'lng': '24.451586', 'description': '24h'},
{'name': 'Kauplus Meie', 'type': 'co', 'address': 'Piibe mnt 16, Järvamaa', 'region': 'Järvamaa', 'lat': '59.1442281', 'lng': '25.7525703', 'description': '24h'},
{'name': 'Koeru vallamaja', 'type': 'co', 'address': 'Paide tee 5, Järvamaa', 'region': 'Järvamaa', 'lat': '58.9626381', 'lng': '26.0247213', 'description': '24h'},
{'name': 'Paide kontor', 'type': 'co', 'address': 'Pärnu 6, Järvamaa', 'region': 'Järvamaa', 'lat': '58.3594112', 'lng': '24.5645929', 'description': '24h'},
{'name': 'Paide Maksimarket', 'type': 'co', 'address': 'Ringtee 2, Järvamaa', 'region': 'Järvamaa', 'lat': '58.8870615', 'lng': '25.5395066', 'description': '24h'},
{'name': 'Statoil Mäo', 'type': 'co', 'address': 'Mäo, Järvamaa', 'region': 'Järvamaa', 'lat': '58.9107169', 'lng': '25.6148633', 'description': '24h'},
{'name': 'Paide Säästumarket', 'type': 'co', 'address': 'Aiavilja 2, Järvamaa', 'region': 'Järvamaa', 'lat': '58.8858263', 'lng': '25.5640214', 'description': '24h'},
{'name': 'Türi Kaubakeskus', 'type': 'co', 'address': 'Tallinna 4, Järvamaa', 'region': 'Järvamaa', 'lat': '58.8082698', 'lng': '25.4259824', 'description': '24h'},
{'name': 'OG Toidukaubad', 'type': 'co', 'address': 'Viljandi mnt 13a, Järvamaa', 'region': 'Järvamaa', 'lat': '58.7799209', 'lng': '25.4540169', 'description': '24h'},
{'name': 'Tabivere', 'type': 'co', 'address': 'Kalda 1, Jõgevamaa', 'region': 'Jõgevamaa', 'lat': '58.8287391', 'lng': '26.9446394', 'description': '24h'},
{'name': 'Jõgeva kontor', 'type': 'co', 'address': 'Suur 18a, Jõgevamaa', 'region': 'Jõgevamaa', 'lat': '58.7459239', 'lng': '26.3949338', 'description': '24h'},
{'name': 'Jõgeva Kaubahall', 'type': 'co', 'address': 'Aia 3, Jõgevamaa', 'region': 'Jõgevamaa', 'lat': '58.8456840', 'lng': '26.9457833', 'description': '24h'},
{'name': 'Puurmani vallamaja', 'type': 'co', 'address': 'Tallinna mnt 1, Jõgevamaa', 'region': 'Jõgevamaa', 'lat': '58.7111640', 'lng': '25.8940399', 'description': '24h'},
{'name': 'Põltsamaa kontor', 'type': 'co', 'address': 'Lossi 7, Jõgevamaa', 'region': 'Jõgevamaa', 'lat': '58.6532238', 'lng': '25.9734445', 'description': '24h'},
{'name': 'Jõgeva Selver', 'type': 'co', 'address': 'Kesk 4, Jõgevamaa', 'region': 'Jõgevamaa', 'lat': '58.7485174', 'lng': '26.3985857', 'description': '24h'},
{'name': 'Statoil Mustvee', 'type': 'co', 'address': 'Uus-Narva mnt 5, Jõgevamaa', 'region': 'Jõgevamaa', 'lat': '58.8488939', 'lng': '26.9137688', 'description': '24h'},
{'name': 'Mustvee Konsum', 'type': 'co', 'address': 'Tartu mnt 3, Jõgevamaa', 'region': 'Jõgevamaa', 'lat': '58.5556118', 'lng': '26.7538398', 'description': '24h'},
{'name': 'Põltsamaa Maxima', 'type': 'co', 'address': 'Kesk 6, Jõgevamaa', 'region': 'Jõgevamaa', 'lat': '58.7493291', 'lng': '26.3980645', 'description': '24h'},
{'name': 'Salme kauplus', 'type': 'co', 'address': 'Sõrve mnt 10, Saaremaa', 'region': 'Saaremaa', 'lat': '58.1628050', 'lng': '22.2502238', 'description': '24h'},
{'name': 'Leisi kauplus', 'type': 'co', 'address': 'Kuressare mnt 4, Saaremaa', 'region': 'Saaremaa', 'lat': '58.5719188', 'lng': '22.6822695', 'description': '24h'},
{'name': 'Saare Selver', 'type': 'co', 'address': 'Tallinna mnt 67, Saaremaa', 'region': 'Saaremaa', 'lat': '58.2631909', 'lng': '22.5085616', 'description': '24h'},
{'name': 'Ärihoone Ferrum', 'type': 'co', 'address': 'Tallinna mnt 8, Saaremaa', 'region': 'Saaremaa', 'lat': '58.2533734', 'lng': '22.4862906', 'description': '24h'},
{'name': 'Kärla TÜ kauplus', 'type': 'co', 'address': 'Kärla alev, Saaremaa', 'region': 'Saaremaa', 'lat': '58.4571248', 'lng': '22.2390262', 'description': '24h'},
{'name': 'Valjala vallamaja', 'type': 'co', 'address': 'Posti 15, Saaremaa', 'region': 'Saaremaa', 'lat': '58.4087433', 'lng': '22.7899286', 'description': '24h'},
{'name': 'Tooma kauplus', 'type': 'co', 'address': 'Smuuli 1, Saaremaa', 'region': 'Saaremaa', 'lat': '58.2619745', 'lng': '22.4845009', 'description': '24h'},
{'name': 'Liiva kauplus', 'type': 'co', 'address': 'Liiva, Saaremaa', 'region': 'Saaremaa', 'lat': '58.6041905', 'lng': '23.2298407', 'description': '24h'},
{'name': 'Keskväljak', 'type': 'co', 'address': 'Kohtu 1, Saaremaa', 'region': 'Saaremaa', 'lat': '58.2535066', 'lng': '22.4839916', 'description': '24h'},
{'name': 'Kauplus Liviko Alcostore', 'type': 'co', 'address': 'Pargi 16, Saaremaa', 'region': 'Saaremaa', 'lat': '58.5545611', 'lng': '23.0890980', 'description': '24h'},
{'name': 'Tehnikakauplus Expert', 'type': 'co', 'address': 'Tallinna mnt 27, Saaremaa', 'region': 'Saaremaa', 'lat': '58.2558417', 'lng': '22.4937107', 'description': '24h'},
{'name': 'Kuressaare kontor', 'type': 'co', 'address': 'Tallinna mnt 16, Saaremaa', 'region': 'Saaremaa', 'lat': '58.5750914', 'lng': '23.5237197', 'description': '24h'},
{'name': 'Auriga Kaubakeskus', 'type': 'co', 'address': 'Tallinna mnt 88, Saaremaa', 'region': 'Saaremaa', 'lat': '58.5758500', 'lng': '23.5238738', 'description': ''},
{'name': 'Orissaare kontor', 'type': 'co', 'address': 'Kuivastu 33, Saaremaa', 'region': 'Saaremaa', 'lat': '58.5590918', 'lng': '23.0831333', 'description': '24h'},
{'name': 'Maxima Pärnu', 'type': 'co', 'address': 'Riia mnt 131, Pärnumaa', 'region': 'Pärnumaa', 'lat': '58.3696711', 'lng': '24.5482488', 'description': '24h'},
{'name': 'Kontserdimaja kontor', 'type': 'co', 'address': 'Aida 5, Pärnumaa', 'region': 'Pärnumaa', 'lat': '58.3869201', 'lng': '24.5010125', 'description': '24h'},
{'name': 'Pärnu Statoil', 'type': 'co', 'address': 'Ehitajate tee 4, Pärnumaa', 'region': 'Pärnumaa', 'lat': '58.4058326', 'lng': '24.4992336', 'description': '24h'},
{'name': 'Pärnu-Jaagupi Taavi kauplus', 'type': 'co', 'address': 'Pärnu mnt. 36, Pärnumaa', 'region': 'Pärnumaa', 'lat': '58.6109300', 'lng': '24.5032815', 'description': '24h'},
{'name': 'Pärnu haigla', 'type': 'co', 'address': 'Ristiku 1, Pärnumaa', 'region': 'Pärnumaa', 'lat': '58.3878719', 'lng': '24.5449237', 'description': ''},
{'name': 'Kaubamajaka kontor', 'type': 'co', 'address': 'Papiniidu 10, Pärnumaa', 'region': 'Pärnumaa', 'lat': '58.3722306', 'lng': '24.5510352', 'description': ''},
{'name': 'Härma kaubahoov', 'type': 'co', 'address': 'Kilgi 2, Pärnumaa', 'region': 'Pärnumaa', 'lat': '58.4030405', 'lng': '24.4876213', 'description': '24h'},
{'name': 'Ülejõe Selver', 'type': 'co', 'address': 'Tallinna mnt 93a, Pärnumaa', 'region': 'Pärnumaa', 'lat': '58.4248708', 'lng': '24.4949862', 'description': '24h'},
{'name': 'Peetri kauplus', 'type': 'co', 'address': 'Haapsalu mnt 37, Pärnumaa', 'region': 'Pärnumaa', 'lat': '58.3924930', 'lng': '24.4632064', 'description': '24h'},
{'name': 'Pärnu kontor', 'type': 'co', 'address': 'Keskväljak 1, Pärnumaa', 'region': 'Pärnumaa', 'lat': '58.3857725', 'lng': '24.4966998', 'description': '24h'},
{'name': 'Lepa Kaubakeskus', 'type': 'co', 'address': 'Väike-Kuke 9, Pärnumaa', 'region': 'Pärnumaa', 'lat': '58.3822133', 'lng': '24.5129578', 'description': '24h'},
{'name': 'Kauplus Rae', 'type': 'co', 'address': 'Riia mnt 271, Pärnumaa', 'region': 'Pärnumaa', 'lat': '58.3598831', 'lng': '24.5687983', 'description': '24h'},
{'name': 'Kauplus Pargi', 'type': 'co', 'address': 'Jaama 8, Pärnumaa', 'region': 'Pärnumaa', 'lat': '58.6471540', 'lng': '25.0289906', 'description': '24h'},
{'name': 'Edu kauplus', 'type': 'co', 'address': 'Pärnu mnt 37, Pärnumaa', 'region': 'Pärnumaa', 'lat': '58.6092020', 'lng': '24.5027775', 'description': '24h'},
{'name': 'Vändra kontor', 'type': 'co', 'address': 'Paide mnt 21, Pärnumaa', 'region': 'Pärnumaa', 'lat': '58.3950333', 'lng': '24.6457709', 'description': '24h'},
{'name': 'Comarket', 'type': 'co', 'address': 'Oja 114, Pärnumaa', 'region': 'Pärnumaa', 'lat': '58.3914677', 'lng': '24.5284436', 'description': ''},
{'name': 'Statoil Pärnu', 'type': 'co', 'address': 'Papiniidu 17, Pärnumaa', 'region': 'Pärnumaa', 'lat': '58.3709918', 'lng': '24.5488008', 'description': '24h'},
{'name': 'Ülejõe Säästumarket', 'type': 'co', 'address': 'Jannseni 3, Pärnumaa', 'region': 'Pärnumaa', 'lat': '58.3916142', 'lng': '24.4944005', 'description': '24h'},
{'name': 'Mai Selver', 'type': 'co', 'address': 'Papiniidu 42, Pärnumaa', 'region': 'Pärnumaa', 'lat': '58.3687191', 'lng': '24.5451793', 'description': '24h'},
{'name': 'Kaubamajaka kontor', 'type': 'co', 'address': 'Papiniidu 10, Pärnumaa', 'region': 'Pärnumaa', 'lat': '58.3722306', 'lng': '24.5510352', 'description': '24h'},
{'name': 'Mirage', 'type': 'co', 'address': 'Rüütli 40, Pärnumaa', 'region': 'Pärnumaa', 'lat': '58.3847467', 'lng': '24.5040387', 'description': '24h'},
{'name': 'Suurjõe Selver', 'type': 'co', 'address': 'Suur-Jõe 57, Pärnumaa', 'region': 'Pärnumaa', 'lat': '58.3792121', 'lng': '24.5345355', 'description': '24h'},
{'name': 'Port Artur kaubakeskus', 'type': 'co', 'address': 'Lai 11, Pärnumaa', 'region': 'Pärnumaa', 'lat': '58.3879686', 'lng': '24.5048795', 'description': ''},
{'name': 'Häädemeeste', 'type': 'co', 'address': 'Pärnu mnt 18, Pärnumaa', 'region': 'Pärnumaa', 'lat': '58.0829441', 'lng': '24.5014694', 'description': '24h'},
{'name': 'Pärnu Statoil', 'type': 'co', 'address': 'Riia mnt 233, Pärnumaa', 'region': 'Pärnumaa', 'lat': '58.3626240', 'lng': '24.5614781', 'description': '24h'},
{'name': 'Viljandi Maxima', 'type': 'co', 'address': 'Vaksali 11, Viljandimaa', 'region': 'Viljandimaa', 'lat': '58.3623718', 'lng': '25.5828813', 'description': '24h'},
{'name': 'Mustla', 'type': 'co', 'address': 'Posti 21, Viljandimaa', 'region': 'Viljandimaa', 'lat': '58.2367090', 'lng': '25.8599281', 'description': '24h'},
{'name': 'Viljandi turg', 'type': 'co', 'address': 'Turu 16, Viljandimaa', 'region': 'Viljandimaa', 'lat': '58.3664585', 'lng': '25.5917385', 'description': '24h'},
{'name': 'Kõpu kauplus', 'type': 'co', 'address': 'Viljandi mnt 1, Viljandimaa', 'region': 'Viljandimaa', 'lat': '58.3265491', 'lng': '25.3066884', 'description': '24h'},
{'name': 'Viljandi kontor', 'type': 'co', 'address': 'Tallinna mnt 7, Viljandimaa', 'region': 'Viljandimaa', 'lat': '58.7067077', 'lng': '25.8982850', 'description': '24h'},
{'name': 'Viljandi kontor', 'type': 'co', 'address': 'Tallinna mnt 7, Viljandimaa', 'region': 'Viljandimaa', 'lat': '58.7067077', 'lng': '25.8982850', 'description': '24h'},
{'name': 'Karksi-Nuia kaubamaja', 'type': 'co', 'address': 'Rahumäe tee 1, Viljandimaa', 'region': 'Viljandimaa', 'lat': '58.104578', 'lng': '25.548808', 'description': '24h'},
{'name': 'Abja-Paluoja kontor', 'type': 'co', 'address': 'Pärnu mnt 19, Viljandimaa', 'region': 'Viljandimaa', 'lat': '58.1262325', 'lng': '25.3546296', 'description': '24h'},
{'name': 'Viljandi Selver', 'type': 'co', 'address': 'Riia mnt 35, Viljandimaa', 'region': 'Viljandimaa', 'lat': '58.3535149', 'lng': '25.5830583', 'description': '24h'},
{'name': 'Viljandi Lossi', 'type': 'co', 'address': 'Lossi 22, Viljandimaa', 'region': 'Viljandimaa', 'lat': '58.3647208', 'lng': '25.6004718', 'description': '24h'},
{'name': 'Viljandi Postimaja', 'type': 'co', 'address': 'Tallinna mnt 22, Viljandimaa', 'region': 'Viljandimaa', 'lat': '58.3676404', 'lng': '25.5976363', 'description': '24h'},
{'name': 'Statoil Viljandi', 'type': 'co', 'address': 'Endla 1, Viljandimaa', 'region': 'Viljandimaa', 'lat': '58.3697903', 'lng': '25.5989677', 'description': '24h'},
{'name': 'Viljandi Maksimarket', 'type': 'co', 'address': 'Lääne 2, Viljandimaa', 'region': 'Viljandimaa', 'lat': '58.3702224', 'lng': '25.5827958', 'description': '24h'},
{'name': 'Ugala kauplus', 'type': 'co', 'address': 'Tallinna tn 26, Viljandimaa', 'region': 'Viljandimaa', 'lat': '59.4426896', 'lng': '24.7531972', 'description': '24h'},
{'name': 'Suure-jaani konsum', 'type': 'co', 'address': 'Pärnu 3, Viljandimaa', 'region': 'Viljandimaa', 'lat': '58.5361105', 'lng': '25.4649288', 'description': '24h'},
{'name': 'Tartu pood', 'type': 'co', 'address': 'Riia 11, Tartumaa', 'region': 'Tartumaa', 'lat': '58.3740401', 'lng': '26.7224610', 'description': '24h'},
{'name': 'Tartu Supernetto', 'type': 'co', 'address': 'Rebase tn 10, Tartumaa', 'region': 'Tartumaa', 'lat': '58.367832', 'lng': '26.737311', 'description': '24h'},
{'name': 'Tasku Kaubanduskeskus', 'type': 'co', 'address': 'Turu tn 2, Tartumaa', 'region': 'Tartumaa', 'lat': '58.377418', 'lng': '26.730144', 'description': ''},
{'name': 'Konsum Ujula', 'type': 'co', 'address': 'Ujula 2, Tartumaa', 'region': 'Tartumaa', 'lat': '58.3867367', 'lng': '26.7247098', 'description': ''},
{'name': 'Elva Arbimäe Konsum', 'type': 'co', 'address': 'Kirde 3, Tartumaa', 'region': 'Tartumaa', 'lat': '58.2343335', 'lng': '26.4150792', 'description': '24h'},
{'name': 'Tartu Ülikooli raamatukogu', 'type': 'co', 'address': 'Struve 1, Tartumaa', 'region': 'Tartumaa', 'lat': '58.3762899', 'lng': '26.7223752', 'description': ''},
{'name': 'Puhja', 'type': 'co', 'address': 'Nooruse 2, Tartumaa', 'region': 'Tartumaa', 'lat': '58.3672027', 'lng': '26.6995130', 'description': ''},
{'name': 'Kaubanduskeskus Zeppelin', 'type': 'co', 'address': 'Turu 14, Tartumaa', 'region': 'Tartumaa', 'lat': '58.3744879', 'lng': '26.7350261', 'description': '24h'},
{'name': 'Annelinna kontor', 'type': 'co', 'address': 'Kalda 1c, Tartumaa', 'region': 'Tartumaa', 'lat': '58.2266817', 'lng': '26.4081395', 'description': '24h'},
{'name': 'Annelinna Selver', 'type': 'co', 'address': 'Kalda tee 43, Tartumaa', 'region': 'Tartumaa', 'lat': '58.3684540', 'lng': '26.7684315', 'description': '24h'},
{'name': 'Maarjamõisa polikliinik', 'type': 'co', 'address': 'Puusepa 1a, Tartumaa', 'region': 'Tartumaa', 'lat': '58.3671569', 'lng': '26.7033208', 'description': ''},
{'name': 'Statoil Aardla', 'type': 'co', 'address': 'Võru mnt 81, Tartumaa', 'region': 'Tartumaa', 'lat': '58.2303177', 'lng': '26.6961729', 'description': '24h'},
{'name': 'Rukkilill', 'type': 'co', 'address': 'Tuglase 2, Tartumaa', 'region': 'Tartumaa', 'lat': '58.3860739', 'lng': '26.6947078', 'description': '24h'},
{'name': 'Lõunakeskus', 'type': 'co', 'address': 'Ringtee 75, Tartumaa', 'region': 'Tartumaa', 'lat': '58.3606393', 'lng': '26.6781802', 'description': ''},
{'name': 'Kaubahall', 'type': 'co', 'address': 'Küüni 7, Tartumaa', 'region': 'Tartumaa', 'lat': '58.3784683', 'lng': '26.7250092', 'description': '24h'},
{'name': 'Elva konsum', 'type': 'co', 'address': 'Kesk 1, Tartumaa', 'region': 'Tartumaa', 'lat': '58.3709943', 'lng': '26.7244645', 'description': '24h'},
{'name': 'Kaubamaja kontor', 'type': 'co', 'address': 'Riia mnt 1, Tartumaa', 'region': 'Tartumaa', 'lat': '58.3774381', 'lng': '26.7276934', 'description': ''},
{'name': 'Sõpruse kaubahall', 'type': 'co', 'address': 'Kalda tee 32, Tartumaa', 'region': 'Tartumaa', 'lat': '58.3700231', 'lng': '26.7672699', 'description': '24h'},
{'name': 'Eedeni kaubanduskeskus', 'type': 'co', 'address': 'Kalda tee 1c, Tartumaa', 'region': 'Tartumaa', 'lat': '58.3740623', 'lng': '26.7509691', 'description': ''},
{'name': 'Lõunakeskuse kontor', 'type': 'co', 'address': 'Ringtee 75, Tartumaa', 'region': 'Tartumaa', 'lat': '58.3606393', 'lng': '26.6781802', 'description': '24h'},
{'name': 'Statoil Tartu', 'type': 'co', 'address': 'Turu 6, Tartumaa', 'region': 'Tartumaa', 'lat': '58.3765338', 'lng': '26.7315895', 'description': '24h'},
{'name': 'Veeriku kauplus', 'type': 'co', 'address': 'Viljandi mnt 13, Tartumaa', 'region': 'Tartumaa', 'lat': '58.3712734', 'lng': '26.6939454', 'description': '24h'},
{'name': 'Säästumarket Tartu', 'type': 'co', 'address': 'Võru 170, Tartumaa', 'region': 'Tartumaa', 'lat': '58.3563954', 'lng': '26.7219458', 'description': '24h'},
{'name': 'Raatuse Kaubamaja', 'type': 'co', 'address': 'Raatuse 20, Tartumaa', 'region': 'Tartumaa', 'lat': '58.3820650', 'lng': '26.7310445', 'description': '24h'},
{'name': 'Jaamamõisa Selver', 'type': 'co', 'address': 'Jaama 74, Tartumaa', 'region': 'Tartumaa', 'lat': '58.3808936', 'lng': '26.7538988', 'description': '24h'},
{'name': 'Kuperjanovi', 'type': 'co', 'address': 'Kuperjanovi 20, Tartumaa', 'region': 'Tartumaa', 'lat': '58.3763094', 'lng': '26.7116402', 'description': '24h'},
{'name': 'Maxima Anne', 'type': 'co', 'address': 'Anne 57, Tartumaa', 'region': 'Tartumaa', 'lat': '58.3747738', 'lng': '26.7561426', 'description': '24h'},
{'name': 'Ringtee Selver', 'type': 'co', 'address': 'Aardla 114, Tartumaa', 'region': 'Tartumaa', 'lat': '58.3536296', 'lng': '26.6857695', 'description': '24h'},
{'name': 'Dorpati kontor', 'type': 'co', 'address': 'Turu 1, Tartumaa', 'region': 'Tartumaa', 'lat': '58.3770040', 'lng': '26.7305686', 'description': '24h'},
{'name': 'Lõunakeskuse kontor', 'type': 'co', 'address': 'Ringtee 75, Tartumaa', 'region': 'Tartumaa', 'lat': '58.3606393', 'lng': '26.6781802', 'description': ''},
{'name': 'Statoil Anne', 'type': 'co', 'address': 'Kalda tee 1, Tartumaa', 'region': 'Tartumaa', 'lat': '58.3730993', 'lng': '26.7539265', 'description': '24h'},
{'name': 'Statoil Lõunakeskus', 'type': 'co', 'address': 'Ringtee 71, Tartumaa', 'region': 'Tartumaa', 'lat': '58.3612012', 'lng': '26.6779117', 'description': '24h'},
{'name': 'Kaubamaja kontor', 'type': 'co', 'address': 'Riia mnt 1, Tartumaa', 'region': 'Tartumaa', 'lat': '58.3774381', 'lng': '26.7276934', 'description': ''},
{'name': 'Sõbra Selver', 'type': 'co', 'address': 'Sõbra 56, Tartumaa', 'region': 'Tartumaa', 'lat': '58.3647653', 'lng': '26.7446263', 'description': '24h'},
{'name': 'Veeriku Selver', 'type': 'co', 'address': 'Vitamiini 1a, Tartumaa', 'region': 'Tartumaa', 'lat': '58.3755411', 'lng': '26.6959735', 'description': '24h'},
{'name': 'Tartu Kaubamaja', 'type': 'co', 'address': 'Riia mnt 1, Tartumaa', 'region': 'Tartumaa', 'lat': '58.3774381', 'lng': '26.7276934', 'description': '24h'},
{'name': 'Sepa keskus', 'type': 'co', 'address': 'Sepa 21, Tartumaa', 'region': 'Tartumaa', 'lat': '58.3507794', 'lng': '26.7373270', 'description': '24h'},
{'name': 'Kivilinna', 'type': 'co', 'address': 'Jaama 173a, Tartumaa', 'region': 'Tartumaa', 'lat': '58.3798312', 'lng': '26.7676358', 'description': '24h'},
{'name': 'Ülenurme kauplus', 'type': 'co', 'address': 'Võru mnt 2, Tartumaa', 'region': 'Tartumaa', 'lat': '58.6330014', 'lng': '26.1184194', 'description': ''},
{'name': 'Nõo vallavalitsus', 'type': 'co', 'address': 'Voika 23, Tartumaa', 'region': 'Tartumaa', 'lat': '58.2719388', 'lng': '26.5215264', 'description': '24h'},
{'name': 'Maxima Ilmatsalu', 'type': 'co', 'address': 'Ilmatsalu 11, Tartumaa', 'region': 'Tartumaa', 'lat': '58.3765965', 'lng': '26.6912416', 'description': '24h'},
{'name': 'Kaunase pst kaubakeskus', 'type': 'co', 'address': 'Kaunase pst 21, Tartumaa', 'region': 'Tartumaa', 'lat': '58.3744941', 'lng': '26.7688721', 'description': '24h'},
{'name': 'Tartu Raekoja plats', 'type': 'co', 'address': 'Raekoja plats 9, Tartumaa', 'region': 'Tartumaa', 'lat': '58.3804089', 'lng': '26.7239468', 'description': '24h'},
{'name': 'Maxima Vahi', 'type': 'co', 'address': 'Piparmündi 1, Tartumaa', 'region': 'Tartumaa', 'lat': '58.4023726', 'lng': '26.7218292', 'description': '24h'},
{'name': 'Kauplus A ja O', 'type': 'co', 'address': 'Puiestee tn 2, Tartumaa', 'region': 'Tartumaa', 'lat': '58.393796', 'lng': '26.717591', 'description': ''},
{'name': 'Tartu Kaubamaja', 'type': 'co', 'address': 'Riia 2, Tartumaa', 'region': 'Tartumaa', 'lat': '58.3773625', 'lng': '26.7279854', 'description': '24h'},
{'name': 'Ringtee Statoil', 'type': 'co', 'address': 'Võru mnt 250, Tartumaa', 'region': 'Tartumaa', 'lat': '58.2346782', 'lng': '26.6936943', 'description': '24h'},
{'name': 'Karete Konsumi', 'type': 'co', 'address': 'Jalaka 34, Tartumaa', 'region': 'Tartumaa', 'lat': '58.3502180', 'lng': '26.7232875', 'description': '24h'},
{'name': 'Lembitu Konsum', 'type': 'co', 'address': 'Lembitu 2, Tartumaa', 'region': 'Tartumaa', 'lat': '58.3695603', 'lng': '26.7111726', 'description': '24h'},
{'name': 'Otepää kaubakeskus', 'type': 'co', 'address': 'Lipuväljak 28, Valgamaa', 'region': 'Valgamaa', 'lat': '58.0575118', 'lng': '26.4962194', 'description': '24h'},
{'name': 'Valga kontor', 'type': 'co', 'address': 'Kesk 10, Valgamaa', 'region': 'Valgamaa', 'lat': '57.8557440', 'lng': '26.1163713', 'description': '24h'},
{'name': 'Maxima Valga', 'type': 'co', 'address': 'Jaama 2b, Valgamaa', 'region': 'Valgamaa', 'lat': '58.0512272', 'lng': '26.2378700', 'description': '24h'},
{'name': 'Statoil Valga', 'type': 'co', 'address': 'Pikk 1, Valgamaa', 'region': 'Valgamaa', 'lat': '57.7882607', 'lng': '26.0481580', 'description': '24h'},
{'name': 'Tõrva kontor', 'type': 'co', 'address': 'Valga mnt 1, Valgamaa', 'region': 'Valgamaa', 'lat': '58.0575001', 'lng': '26.2274597', 'description': '24h'},
{'name': 'Otepää kontor', 'type': 'co', 'address': 'Lipuväljak 4, Valgamaa', 'region': 'Valgamaa', 'lat': '58.0574031', 'lng': '26.4955725', 'description': '24h'},
{'name': 'Rimi Valga', 'type': 'co', 'address': 'Riia 18, Valgamaa', 'region': 'Valgamaa', 'lat': '57.7774383', 'lng': '26.0275958', 'description': '24h'},
{'name': 'Põlva Konsum', 'type': 'co', 'address': 'Kesk 39, Põlvamaa', 'region': 'Põlvamaa', 'lat': '58.0526286', 'lng': '27.0464996', 'description': '24h'},
{'name': 'Saverna Konsum', 'type': 'co', 'address': 'Saverna, Põlvamaa', 'region': 'Põlvamaa', 'lat': '58.0697398', 'lng': '26.7395743', 'description': '24h'},
{'name': 'Kauplus Aid ja Kodo', 'type': 'co', 'address': 'Weizenbergi 2b, Põlvamaa', 'region': 'Põlvamaa', 'lat': '57.9855322', 'lng': '26.7609009', 'description': '24h'},
{'name': 'Värska Vallavalitsus', 'type': 'co', 'address': 'Pikk 12, Põlvamaa', 'region': 'Põlvamaa', 'lat': '57.9576528', 'lng': '27.6333604', 'description': '24h'},
{'name': 'Põlva kontor', 'type': 'co', 'address': 'Kesk 11, Põlvamaa', 'region': 'Põlvamaa', 'lat': '58.0543399', 'lng': '27.0566693', 'description': '24h'},
{'name': 'Säästumarket Põlva', 'type': 'co', 'address': 'Jaama 12a, Põlvamaa', 'region': 'Põlvamaa', 'lat': '58.0629484', 'lng': '27.0696471', 'description': '24h'},
{'name': 'Räpina Selvehall', 'type': 'co', 'address': 'Kooli 14a, Põlvamaa', 'region': 'Põlvamaa', 'lat': '58.0949700', 'lng': '27.4600439', 'description': '24h'},
{'name': 'Räpina kontor', 'type': 'co', 'address': 'Kooli 1, Põlvamaa', 'region': 'Põlvamaa', 'lat': '57.9866043', 'lng': '26.7618091', 'description': '24h'},
{'name': 'Võru Maxima', 'type': 'co', 'address': 'Kooli 2, Võrumaa', 'region': 'Võrumaa', 'lat': '57.9862551', 'lng': '26.7618003', 'description': '24h'},
{'name': 'Rõuge TÜ kauplus', 'type': 'co', 'address': 'Rõuge, Võrumaa', 'region': 'Võrumaa', 'lat': '57.7299909', 'lng': '26.9178470', 'description': '24h'},
{'name': 'Võru kontor', 'type': 'co', 'address': 'Vabaduse 10a, Võrumaa', 'region': 'Võrumaa', 'lat': '57.8457298', 'lng': '26.9980237', 'description': '24h'},
{'name': 'Antsla A ja O', 'type': 'co', 'address': 'Jaani 4, Võrumaa', 'region': 'Võrumaa', 'lat': '57.8287573', 'lng': '26.5276223', 'description': '24h'},
{'name': 'Favora Võru', 'type': 'co', 'address': 'Vilja 6, Võrumaa', 'region': 'Võrumaa', 'lat': '57.8497822', 'lng': '27.0070016', 'description': '24h'},
{'name': 'Statoil Võru', 'type': 'co', 'address': 'Jüri 45, Võrumaa', 'region': 'Võrumaa', 'lat': '57.8418596', 'lng': '27.0062494', 'description': '24h'},
{'name': 'Vastseliina', 'type': 'co', 'address': 'Võidu 21, Võrumaa', 'region': 'Võrumaa', 'lat': '57.7313474', 'lng': '27.2841352', 'description': '24h'},
{'name': 'Võru Maksimarket', 'type': 'co', 'address': 'Jüri 83, Võrumaa', 'region': 'Võrumaa', 'lat': '57.8355348', 'lng': '27.0090474', 'description': '24h'},
{'name': 'Võru Kagukeskus', 'type': 'co', 'address': 'Kooli 6, Võrumaa', 'region': 'Võrumaa', 'lat': '57.9879752', 'lng': '26.7619879', 'description': '24h'},
{'name': 'HyperRimi Põhja', 'type': 'co', 'address': 'Põhja pst 17, Põhja-Tallinn', 'region': 'Põhja-Tallinn', 'lat': '59.4439179', 'lng': '24.7434386', 'description': '24h'},
{'name': 'Pelgulinna kauplus', 'type': 'co', 'address': 'Telliskivi 24, Põhja-Tallinn', 'region': 'Põhja-Tallinn', 'lat': '59.4361656', 'lng': '24.7207379', 'description': '24h'},
{'name': 'Sõle kontor', 'type': 'co', 'address': 'Kari 4, Põhja-Tallinn', 'region': 'Põhja-Tallinn', 'lat': '59.4481602', 'lng': '24.6965679', 'description': '24h'},
{'name': 'Olympic Casino Kopli', 'type': 'co', 'address': 'Kopli 69b, Põhja-Tallinn', 'region': 'Põhja-Tallinn', 'lat': '59.4557064', 'lng': '24.6797731', 'description': '24h'},
{'name': 'Statoil Sõle', 'type': 'co', 'address': 'Paldiski mnt 44, Põhja-Tallinn', 'region': 'Põhja-Tallinn', 'lat': '59.4323694', 'lng': '24.7145444', 'description': '24h'},
{'name': 'Neste Sõle', 'type': 'co', 'address': 'Sõle 27, Põhja-Tallinn', 'region': 'Põhja-Tallinn', 'lat': '59.4389489', 'lng': '24.7083874', 'description': '24h'},
{'name': 'Sõle kontor', 'type': 'co', 'address': 'Kari 4, Põhja-Tallinn', 'region': 'Põhja-Tallinn', 'lat': '59.4481602', 'lng': '24.6965679', 'description': '24h'},
{'name': 'Sõle kontor', 'type': 'co', 'address': 'Kari 4, Põhja-Tallinn', 'region': 'Põhja-Tallinn', 'lat': '59.4481602', 'lng': '24.6965679', 'description': '24h'},
{'name': 'Merimetsa Selver', 'type': 'co', 'address': 'Paldiski mnt 56, Põhja-Tallinn', 'region': 'Põhja-Tallinn', 'lat': '59.4296445', 'lng': '24.6950250', 'description': '24h'},
{'name': 'Kopli toidubaar', 'type': 'co', 'address': 'Uus-Maleva 1, Põhja-Tallinn', 'region': 'Põhja-Tallinn', 'lat': '59.4557453', 'lng': '24.6815544', 'description': '24h'},
{'name': 'Säästumarket Telliskivi', 'type': 'co', 'address': 'Telliskivi 61, Põhja-Tallinn', 'region': 'Põhja-Tallinn', 'lat': '59.4406995', 'lng': '24.7298584', 'description': '24h'},
{'name': 'Balti Jaam', 'type': 'co', 'address': 'Toompuiestee 37, Põhja-Tallinn', 'region': 'Põhja-Tallinn', 'lat': '59.4397387', 'lng': '24.7378527', 'description': '24h'},
{'name': 'Balti jaam S24', 'type': 'co', 'address': 'Kopli tn 4, Põhja-Tallinn', 'region': 'Põhja-Tallinn', 'lat': '59.4426896', 'lng': '24.7531972', 'description': '24h'},
{'name': 'Merimetsa Tervisekeskus', 'type': 'co', 'address': 'Paldiski mnt 68, Põhja-Tallinn', 'region': 'Põhja-Tallinn', 'lat': '59.4298550', 'lng': '24.6911383', 'description': ''},
{'name': 'Pelgulinna Selver', 'type': 'co', 'address': 'Sõle 51, Põhja-Tallinn', 'region': 'Põhja-Tallinn', 'lat': '59.4447952', 'lng': '24.7024155', 'description': '24h'},
{'name': 'Balti jaam S24', 'type': 'co', 'address': 'Kopli tn 4, Põhja-Tallinn', 'region': 'Põhja-Tallinn', 'lat': '59.4426896', 'lng': '24.7531972', 'description': '24h'},
{'name': 'Pirita Selver', 'type': 'co', 'address': 'Rummu tee 4, Pirita', 'region': 'Pirita', 'lat': '59.4628980', 'lng': '24.8278626', 'description': '24h'},
{'name': 'Pirita Selveri kontor', 'type': 'co', 'address': 'Rummu tee 4, Pirita', 'region': 'Pirita', 'lat': '59.4628980', 'lng': '24.8278626', 'description': ''},
{'name': 'R-Kiosk', 'type': 'co', 'address': 'Merivälja tee 1, Pirita', 'region': 'Pirita', 'lat': '59.4669154', 'lng': '24.8325061', 'description': '24h'},
{'name': 'Mähe apteek', 'type': 'co', 'address': 'Pärnamäe tee 114, Pirita', 'region': 'Pirita', 'lat': '59.4910232', 'lng': '24.8798380', 'description': '24h'},
{'name': 'Kakumäe Selver', 'type': 'co', 'address': 'Rannamõisa tee 6, Haabersti', 'region': 'Haabersti', 'lat': '59.4276798', 'lng': '24.6276453', 'description': '24h'},
{'name': 'Õismäe kontor', 'type': 'co', 'address': 'Õismäe 1b, Haabersti', 'region': 'Haabersti', 'lat': '59.4121416', 'lng': '24.6549841', 'description': '24h'},
{'name': 'Õismäe kontor', 'type': 'co', 'address': 'Õismäe tee 1b, Haabersti', 'region': 'Haabersti', 'lat': '59.4121416', 'lng': '24.6549841', 'description': '24h'},
{'name': 'Kauplus Meelespea', 'type': 'co', 'address': 'Õismäe tee 88, Haabersti', 'region': 'Haabersti', 'lat': '59.4151206', 'lng': '24.6404051', 'description': '24h'},
{'name': 'Maxima Õismäe', 'type': 'co', 'address': 'Õismäe tee 46, Haabersti', 'region': 'Haabersti', 'lat': '59.4093704', 'lng': '24.6479811', 'description': '24h'},
{'name': 'HyperRimi Haabersti', 'type': 'co', 'address': 'Paldiski mnt 104, Haabersti', 'region': 'Haabersti', 'lat': '59.4241206', 'lng': '24.6485430', 'description': '24h'},
{'name': 'Rocca al Mare kontor', 'type': 'co', 'address': 'Paldiski mnt 102, Haabersti', 'region': 'Haabersti', 'lat': '59.4244791', 'lng': '24.6500642', 'description': ''},
{'name': 'Järveotsa Ärikeskus', 'type': 'co', 'address': 'Õismäe tee 107 A, Haabersti', 'region': 'Haabersti', 'lat': '59.4115524', 'lng': '24.6379721', 'description': ''},
{'name': 'Statoil Õismäe', 'type': 'co', 'address': 'Paldiski mnt 106, Haabersti', 'region': 'Haabersti', 'lat': '59.4237850', 'lng': '24.6471775', 'description': '24h'},
{'name': 'Rocca al Mare kaubanduskeskus', 'type': 'co', 'address': 'Paldiski mnt 102, Haabersti', 'region': 'Haabersti', 'lat': '59.4244791', 'lng': '24.6500642', 'description': ''},
{'name': 'Statoil Kristiine', 'type': 'co', 'address': 'Endla 43, Kristiine', 'region': 'Kristiine', 'lat': '59.4280247', 'lng': '24.7243072', 'description': '24h'},
{'name': 'Kristiine Kaubanduskeskus', 'type': 'co', 'address': 'Endla 45, Kristiine', 'region': 'Kristiine', 'lat': '59.4278874', 'lng': '24.7236110', 'description': ''},
{'name': 'Statoil Järve', 'type': 'co', 'address': 'Pärnu mnt 180, Kristiine', 'region': 'Kristiine', 'lat': '59.3971272', 'lng': '24.7259044', 'description': '24h'},
{'name': 'Statoil Endla', 'type': 'co', 'address': 'Endla 52, Kristiine', 'region': 'Kristiine', 'lat': '59.4276645', 'lng': '24.7191246', 'description': '24h'},
{'name': 'Tondi Selver', 'type': 'co', 'address': 'Tammsaare 62, Kristiine', 'region': 'Kristiine', 'lat': '59.4023871', 'lng': '24.7153236', 'description': ''},
{'name': 'Kristiine Kaubanduskeskus', 'type': 'co', 'address': 'Endla 45, Kristiine', 'region': 'Kristiine', 'lat': '59.4278874', 'lng': '24.7236110', 'description': '24h'},
{'name': 'Kristiine kontor', 'type': 'co', 'address': 'Endla 45, Kristiine', 'region': 'Kristiine', 'lat': '59.4278874', 'lng': '24.7236110', 'description': ''},
{'name': 'Maxima Nõmme tee', 'type': 'co', 'address': 'Nõmme tee 23, Kristiine', 'region': 'Kristiine', 'lat': '59.4178822', 'lng': '24.7212421', 'description': '24h'},
{'name': 'Järve Selver', 'type': 'co', 'address': 'Tallinna nt. 7, Kristiine', 'region': 'Kristiine', 'lat': '59.4201490', 'lng': '24.6926028', 'description': ''},
{'name': 'Järve kontor', 'type': 'co', 'address': 'Pärnu mnt 238, Kristiine', 'region': 'Kristiine', 'lat': '59.3918666', 'lng': '24.7203988', 'description': ''},
{'name': 'Solaris', 'type': 'co', 'address': 'Rävala pst 12, Kesklinn', 'region': 'Kesklinn', 'lat': '59.4326624', 'lng': '24.7520803', 'description': ''},
{'name': 'Raadiomaja', 'type': 'co', 'address': 'Gonsiori 21, Kesklinn', 'region': 'Kesklinn', 'lat': '59.4343877', 'lng': '24.7677337', 'description': '24h'},
{'name': 'Foorumi kontor', 'type': 'co', 'address': 'Narva mnt 5, Kesklinn', 'region': 'Kesklinn', 'lat': '59.4372788', 'lng': '24.7585178', 'description': '24h'},
{'name': 'Ilusalong', 'type': 'co', 'address': 'Suur-Karja 18, Kesklinn', 'region': 'Kesklinn', 'lat': '59.4346154', 'lng': '24.7466028', 'description': '24h'},
{'name': 'Foorumi kontor', 'type': 'co', 'address': 'Narva mnt 5, Kesklinn', 'region': 'Kesklinn', 'lat': '59.4372788', 'lng': '24.7585178', 'description': '24h'},
{'name': 'Coca Cola Plaza', 'type': 'co', 'address': 'Hobujaama 5, Kesklinn', 'region': 'Kesklinn', 'lat': '59.4383747', 'lng': '24.7573030', 'description': ''},
{'name': 'Kauplus Kodutarve', 'type': 'co', 'address': 'Narva mnt 23, Kesklinn', 'region': 'Kesklinn', 'lat': '59.4385244', 'lng': '24.7715259', 'description': '24h'},
{'name': 'Tallinna Kaubamaja', 'type': 'co', 'address': 'Gonsiori 2, Kesklinn', 'region': 'Kesklinn', 'lat': '59.4335054', 'lng': '24.7739127', 'description': ''},
{'name': 'Hotell Olümpia', 'type': 'co', 'address': 'Liivalaia 33, Kesklinn', 'region': 'Kesklinn', 'lat': '59.4301246', 'lng': '24.7585792', 'description': '24h'},
{'name': 'Eha Maxima', 'type': 'co', 'address': 'Tartu mnt 49, Kesklinn', 'region': 'Kesklinn', 'lat': '59.4312858', 'lng': '24.7695341', 'description': '24h'},
{'name': 'Ajakirjandusmaja', 'type': 'co', 'address': 'Pärnu mnt 67a, Kesklinn', 'region': 'Kesklinn', 'lat': '59.4254110', 'lng': '24.7427268', 'description': '24h'},
{'name': 'Pikad kokad', 'type': 'co', 'address': 'Pikk 36, Kesklinn', 'region': 'Kesklinn', 'lat': '59.4399732', 'lng': '24.7473071', 'description': '24h'},
{'name': 'Toompea loss', 'type': 'co', 'address': 'Lossiplats 1, Kesklinn', 'region': 'Kesklinn', 'lat': '59.4356780', 'lng': '24.7386926', 'description': ''},
{'name': 'Park Hotell', 'type': 'co', 'address': 'Kreutzwaldi 23, Kesklinn', 'region': 'Kesklinn', 'lat': '59.4336167', 'lng': '24.7682373', 'description': '24h'},
{'name': 'Kawe kontor', 'type': 'co', 'address': 'Pärnu mnt 15, Kesklinn', 'region': 'Kesklinn', 'lat': '59.4264378', 'lng': '24.7427265', 'description': '24h'},
{'name': 'Rotermanni keskus', 'type': 'co', 'address': 'Mere pst 4, Kesklinn', 'region': 'Kesklinn', 'lat': '59.4427153', 'lng': '24.7518194', 'description': '24h'},
{'name': 'Reisisadama D-terminal', 'type': 'co', 'address': 'Lootsi 13, Kesklinn', 'region': 'Kesklinn', 'lat': '59.4411281', 'lng': '24.7647346', 'description': ''},
{'name': 'Stockmanni Kaubamaja', 'type': 'co', 'address': 'Liivalaia 53, Kesklinn', 'region': 'Kesklinn', 'lat': '59.4307994', 'lng': '24.7601582', 'description': ''},
{'name': 'Stockmanni Kaubamaja', 'type': 'co', 'address': 'Liivalaia 53, Kesklinn', 'region': 'Kesklinn', 'lat': '59.4307994', 'lng': '24.7601582', 'description': ''},
{'name': 'Pro Kapitali büroohoone', 'type': 'co', 'address': 'Narva mnt 13, Kesklinn', 'region': 'Kesklinn', 'lat': '59.4376655', 'lng': '24.7659763', 'description': ''},
{'name': 'Norde Centrum', 'type': 'co', 'address': 'Lootsi 7, Kesklinn', 'region': 'Kesklinn', 'lat': '59.4411281', 'lng': '24.7647346', 'description': '24h'},
{'name': 'Viru keskus', 'type': 'co', 'address': 'Viru väljak 4, Kesklinn', 'region': 'Kesklinn', 'lat': '59.4368346', 'lng': '24.7539243', 'description': ''},
{'name': 'Foorumi kontor', 'type': 'co', 'address': 'Narva mnt 5, Kesklinn', 'region': 'Kesklinn', 'lat': '59.4372788', 'lng': '24.7585178', 'description': '24h'},
{'name': 'Statoil Linnahall', 'type': 'co', 'address': 'Põhja pst 33, Kesklinn', 'region': 'Kesklinn', 'lat': '59.4437880', 'lng': '24.7515355', 'description': '24h'},
{'name': 'Lincona', 'type': 'co', 'address': 'Pärnu mnt.139/3, Kesklinn', 'region': 'Kesklinn', 'lat': '59.4367368', 'lng': '24.7606672', 'description': '24h'},
{'name': 'Tallinna Kaubamaja', 'type': 'co', 'address': 'Gonsiori 2, Kesklinn', 'region': 'Kesklinn', 'lat': '59.4335054', 'lng': '24.7739127', 'description': '24h'},
{'name': 'Musumägi', 'type': 'co', 'address': 'Valli 1, Kesklinn', 'region': 'Kesklinn', 'lat': '59.4355392', 'lng': '24.7492913', 'description': '24h'},
{'name': 'Tavidi valuutavahetus', 'type': 'co', 'address': 'Aia 5, Kesklinn', 'region': 'Kesklinn', 'lat': '59.4377853', 'lng': '24.7513406', 'description': '24h'},
{'name': 'Statoil Petrooleumi', 'type': 'co', 'address': 'Petrooleumi 4, Kesklinn', 'region': 'Kesklinn', 'lat': '59.4410162', 'lng': '24.7759782', 'description': '24h'},
{'name': 'Tallinna Bussijaam', 'type': 'co', 'address': 'Lastekodu 46, Kesklinn', 'region': 'Kesklinn', 'lat': '59.4275857', 'lng': '24.7745850', 'description': ''},
{'name': 'Klaasgalerii', 'type': 'co', 'address': 'Viru 27a, Kesklinn', 'region': 'Kesklinn', 'lat': '59.4366549', 'lng': '24.7522449', 'description': '24h'},
{'name': 'Kawe kontor', 'type': 'co', 'address': 'Pärnu mnt 15, Kesklinn', 'region': 'Kesklinn', 'lat': '59.4264378', 'lng': '24.7427265', 'description': '24h'},
{'name': 'Tallinna Bussijaam', 'type': 'co', 'address': 'Lastekodu 46, Kesklinn', 'region': 'Kesklinn', 'lat': '59.4275857', 'lng': '24.7745850', 'description': ''},
{'name': 'Viru keskus', 'type': 'co', 'address': 'Viru väljak 4, Kesklinn', 'region': 'Kesklinn', 'lat': '59.4368346', 'lng': '24.7539243', 'description': ''},
{'name': 'Liivalaia kontor,vasak', 'type': 'co', 'address': 'Liivalaia,8, Kesklinn', 'region': 'Kesklinn', 'lat': '59.4275374', 'lng': '24.7455502', 'description': '24h'},
{'name': 'Estonian Air', 'type': 'co', 'address': 'Vabaduse väljak 10, Kesklinn', 'region': 'Kesklinn', 'lat': '59.4332370', 'lng': '24.7440649', 'description': '24h'},
{'name': 'Tõnismäe kauplus', 'type': 'co', 'address': 'Tõnismägi 1, Kesklinn', 'region': 'Kesklinn', 'lat': '59.4304407', 'lng': '24.7407307', 'description': '24h'},
{'name': 'Liivalaia kontor ,parem', 'type': 'co', 'address': 'Liivalaia ,8, Kesklinn', 'region': 'Kesklinn', 'lat': '59.4275374', 'lng': '24.7455502', 'description': '24h'},
{'name': 'Rävala kontor', 'type': 'co', 'address': 'Rävala pst 5, Kesklinn', 'region': 'Kesklinn', 'lat': '59.4334380', 'lng': '24.7550406', 'description': '24h'},
{'name': 'Rävala kontor', 'type': 'co', 'address': 'Rävala pst 5, Kesklinn', 'region': 'Kesklinn', 'lat': '59.4334380', 'lng': '24.7550406', 'description': '24h'},
{'name': 'Kawe kontor', 'type': 'co', 'address': 'Pärnu mnt 15, Kesklinn', 'region': 'Kesklinn', 'lat': '59.4264378', 'lng': '24.7427265', 'description': '24h'},
{'name': 'Mustakivi kontor', 'type': 'co', 'address': 'Mahtra 27, Lasnamäe', 'region': 'Lasnamäe', 'lat': '59.4427838', 'lng': '24.8763120', 'description': '24h'},
{'name': 'Mustakivi kontor', 'type': 'co', 'address': 'Mahtra 27, Lasnamäe', 'region': 'Lasnamäe', 'lat': '59.4427838', 'lng': '24.8763120', 'description': ''},
{'name': 'Ümera Maxima', 'type': 'co', 'address': 'Ümera 3, Lasnamäe', 'region': 'Lasnamäe', 'lat': '59.4435482', 'lng': '24.8900490', 'description': '24h'},
{'name': 'Mustakivi kontor', 'type': 'co', 'address': 'Mahtra tn 27, Lasnamäe', 'region': 'Lasnamäe', 'lat': '59.4429125', 'lng': '24.8338627', 'description': '24h'},
{'name': 'Idakeskus', 'type': 'co', 'address': 'Punane 16, Lasnamäe', 'region': 'Lasnamäe', 'lat': '59.4328764', 'lng': '24.8240829', 'description': '24h'},
{'name': 'Torupilli Selver', 'type': 'co', 'address': 'Vesivärava 37, Lasnamäe', 'region': 'Lasnamäe', 'lat': '59.4319259', 'lng': '24.7790548', 'description': '24h'},
{'name': 'Punane Selver', 'type': 'co', 'address': 'Punane 46, Lasnamäe', 'region': 'Lasnamäe', 'lat': '59.4336650', 'lng': '24.8291939', 'description': '24h'},
{'name': 'Sikupilli kaubanduskeskus', 'type': 'co', 'address': 'Tartu mnt 87, Lasnamäe', 'region': 'Lasnamäe', 'lat': '59.4251787', 'lng': '24.7799424', 'description': ''},
{'name': 'Vesse Maksimarket', 'type': 'co', 'address': 'Vesse 3/5, Lasnamäe', 'region': 'Lasnamäe', 'lat': '59.4260830', 'lng': '24.8343891', 'description': '24h'},
{'name': 'Pae kontor', 'type': 'co', 'address': 'Pae 80, Lasnamäe', 'region': 'Lasnamäe', 'lat': '59.4362862', 'lng': '24.8199199', 'description': '24h'},
{'name': 'Pae kontor', 'type': 'co', 'address': 'Pae 80, Lasnamäe', 'region': 'Lasnamäe', 'lat': '59.4362862', 'lng': '24.8199199', 'description': '24h'},
{'name': 'Lasnamäe polikliinik', 'type': 'co', 'address': 'Punane 61, Lasnamäe', 'region': 'Lasnamäe', 'lat': '59.4366279', 'lng': '24.8484107', 'description': '24h'},
{'name': 'Linnamäe kaubanduskeskus', 'type': 'co', 'address': 'Linnamäe 17/19, Lasnamäe', 'region': 'Lasnamäe', 'lat': '59.4492734', 'lng': '24.8675673', 'description': '24h'},
{'name': 'Priisle kaubakeskus', 'type': 'co', 'address': 'Linnamäe tee 61, Lasnamäe', 'region': 'Lasnamäe', 'lat': '59.4493694', 'lng': '24.8818741', 'description': ''},
{'name': 'Priisle kaubakeskus', 'type': 'co', 'address': 'Linnamäe tee 61, Lasnamäe', 'region': 'Lasnamäe', 'lat': '59.4493694', 'lng': '24.8818741', 'description': '24h'},
{'name': 'Säästumarket Läänemere', 'type': 'co', 'address': 'Läänemere tee 2c, Lasnamäe', 'region': 'Lasnamäe', 'lat': '59.4511216', 'lng': '24.8611767', 'description': '24h'},
{'name': 'Statoil Võidujooksu', 'type': 'co', 'address': 'Võidujooksu 10, Lasnamäe', 'region': 'Lasnamäe', 'lat': '59.4357917', 'lng': '24.8117179', 'description': '24h'},
{'name': 'Statoil Järvevana', 'type': 'co', 'address': 'Järvevana tee 2, Lasnamäe', 'region': 'Lasnamäe', 'lat': '59.4127811', 'lng': '24.7584272', 'description': '24h'},
{'name': 'Neste Smuuli', 'type': 'co', 'address': 'Punane 43, Lasnamäe', 'region': 'Lasnamäe', 'lat': '59.4342168', 'lng': '24.8325803', 'description': '24h'},
{'name': 'Statoil Mustakivi', 'type': 'co', 'address': 'Mahtra 29, Lasnamäe', 'region': 'Lasnamäe', 'lat': '59.4428647', 'lng': '24.8761758', 'description': '24h'},
{'name': 'Lasnamäe Centrumi kontor', 'type': 'co', 'address': 'Mustakivi tee 13, Lasnamäe', 'region': 'Lasnamäe', 'lat': '59.4406383', 'lng': '24.8677953', 'description': '24h'},
{'name': 'Kotka Kaubatänav', 'type': 'co', 'address': 'Pinna 21, Lasnamäe', 'region': 'Lasnamäe', 'lat': '59.4394131', 'lng': '24.8357145', 'description': '24h'},
{'name': 'Neste Peterburi mnt', 'type': 'co', 'address': 'Peterburi tee 48, Lasnamäe', 'region': 'Lasnamäe', 'lat': '59.4269717', 'lng': '24.8210659', 'description': '24h'},
{'name': 'Ülemiste kaubanaduskeskus', 'type': 'co', 'address': 'Suur-Sõjamäe 4, Lasnamäe', 'region': 'Lasnamäe', 'lat': '59.4230240', 'lng': '24.7957187', 'description': '24h'},
{'name': 'Lasnamäe Centrumi kontor', 'type': 'co', 'address': 'Mustakivi 13, Lasnamäe', 'region': 'Lasnamäe', 'lat': '59.4406383', 'lng': '24.8677953', 'description': ''},
{'name': 'Sikupilli kaubanduskeskus', 'type': 'co', 'address': 'Tartu mnt 87, Lasnamäe', 'region': 'Lasnamäe', 'lat': '59.4251787', 'lng': '24.7799424', 'description': ''},
{'name': 'Ülemiste kontor', 'type': 'co', 'address': 'Suur-Sõjamäe 4, Lasnamäe', 'region': 'Lasnamäe', 'lat': '59.4230240', 'lng': '24.7957187', 'description': ''},
{'name': 'Ülemiste kontor', 'type': 'co', 'address': 'Suur-Sõjamäe 4, Lasnamäe', 'region': 'Lasnamäe', 'lat': '59.4230240', 'lng': '24.7957187', 'description': ''},
{'name': 'Mustakivi Selver', 'type': 'co', 'address': 'Mustakivi tee 3a, Lasnamäe', 'region': 'Lasnamäe', 'lat': '59.4375993', 'lng': '24.8720913', 'description': '24h'},
{'name': 'Statoil Sikupilli', 'type': 'co', 'address': 'Tartu mnt 86, Lasnamäe', 'region': 'Lasnamäe', 'lat': '59.4252277', 'lng': '24.7798144', 'description': '24h'},
{'name': 'Tallinna Lennujaam', 'type': 'co', 'address': 'Lennujaama tee 2, Lasnamäe', 'region': 'Lasnamäe', 'lat': '59.4197959', 'lng': '24.7969679', 'description': ''},
{'name': 'Sikupilli kontor', 'type': 'co', 'address': 'Tartu mnt 87, Lasnamäe', 'region': 'Lasnamäe', 'lat': '59.4251787', 'lng': '24.7799424', 'description': ''},
{'name': 'Pae kontor', 'type': 'co', 'address': 'Pae 80, Lasnamäe', 'region': 'Lasnamäe', 'lat': '59.4362862', 'lng': '24.8199199', 'description': '24h'},
{'name': 'Prisma Mustakivi', 'type': 'co', 'address': 'Mustakivi tee 17, Lasnamäe', 'region': 'Lasnamäe', 'lat': '59.4436173', 'lng': '24.8658277', 'description': '24h'},
{'name': 'Vikerlase keskus', 'type': 'co', 'address': 'Vikerlase 19, Lasnamäe', 'region': 'Lasnamäe', 'lat': '59.4392218', 'lng': '24.8443489', 'description': ''},
{'name': 'Lasnamäe Centrumi kontor', 'type': 'co', 'address': 'Mustakivi 13, Lasnamäe', 'region': 'Lasnamäe', 'lat': '59.4406383', 'lng': '24.8677953', 'description': '24h'},
{'name': 'Kadaka Selver', 'type': 'co', 'address': 'Kadaka tee 56a, Mustamäe', 'region': 'Mustamäe', 'lat': '59.4123739', 'lng': '24.6682214', 'description': '24h'},
{'name': 'Sääse kauplus', 'type': 'co', 'address': 'Tammsaare tee 94, Mustamäe', 'region': 'Mustamäe', 'lat': '59.4083044', 'lng': '24.6942064', 'description': '24h'},
{'name': 'Kännu Kukk', 'type': 'co', 'address': 'Vilde tee 75, Mustamäe', 'region': 'Mustamäe', 'lat': '59.4030334', 'lng': '24.6878712', 'description': '24h'},
{'name': 'Tallinna Tehnikaülikool', 'type': 'co', 'address': 'Akadeemia tee 3, Mustamäe', 'region': 'Mustamäe', 'lat': '59.3972622', 'lng': '24.6701226', 'description': ''},
{'name': 'Sõpruse pst kontor', 'type': 'co', 'address': 'Sõpruse pst 237/239, Mustamäe', 'region': 'Mustamäe', 'lat': '59.3992287', 'lng': '24.6858688', 'description': '24h'},
{'name': 'Kauplus Marja', 'type': 'co', 'address': 'Mustamäe tee 45, Mustamäe', 'region': 'Mustamäe', 'lat': '59.4158065', 'lng': '24.6919980', 'description': '24h'},
{'name': 'Comarket', 'type': 'co', 'address': 'Vilde tee 101, Mustamäe', 'region': 'Mustamäe', 'lat': '59.4044244', 'lng': '24.6757825', 'description': '24h'},
{'name': 'Tammsaare Lukoil', 'type': 'co', 'address': 'Tammsaare 53, Mustamäe', 'region': 'Mustamäe', 'lat': '59.4025380', 'lng': '24.7093942', 'description': '24h'},
{'name': 'Kadaka Selver', 'type': 'co', 'address': 'Kadaka tee 56a, Mustamäe', 'region': 'Mustamäe', 'lat': '59.4123739', 'lng': '24.6682214', 'description': ''},
{'name': 'Sõpruse pst kontor', 'type': 'co', 'address': 'Sõpruse pst 237/239, Mustamäe', 'region': 'Mustamäe', 'lat': '59.3992287', 'lng': '24.6858688', 'description': '24h'},
{'name': 'SuperNetto', 'type': 'co', 'address': 'Tammsaare tee 55, Mustamäe', 'region': 'Mustamäe', 'lat': '59.4031391', 'lng': '24.7071758', 'description': '24h'},
{'name': 'Mustamäe polikliinik', 'type': 'co', 'address': 'Ehitajate tee 27, Mustamäe', 'region': 'Mustamäe', 'lat': '59.3997801', 'lng': '24.6693268', 'description': '24h'},
{'name': 'Grossi Toidukaubad', 'type': 'co', 'address': 'Tammsaare tee 137, Mustamäe', 'region': 'Mustamäe', 'lat': '59.4087205', 'lng': '24.6739894', 'description': '24h'},
{'name': 'Eks Kaubamaja', 'type': 'co', 'address': 'Mustamäe tee 12, Mustamäe', 'region': 'Mustamäe', 'lat': '59.4250897', 'lng': '24.7005538', 'description': ''},
{'name': 'Statoil Tammsaare tee', 'type': 'co', 'address': 'Tammsaare tee 111, Mustamäe', 'region': 'Mustamäe', 'lat': '59.4083296', 'lng': '24.6858145', 'description': '24h'},
{'name': 'Statoil Sütiste', 'type': 'co', 'address': 'Sütiste tee 1, Mustamäe', 'region': 'Mustamäe', 'lat': '59.4006003', 'lng': '24.6953787', 'description': '24h'},
{'name': 'Statoil Mustamäe', 'type': 'co', 'address': 'Sõpruse pst 200b, Mustamäe', 'region': 'Mustamäe', 'lat': '59.4076605', 'lng': '24.6995798', 'description': '24h'},
{'name': 'Prisma Mustamäe', 'type': 'co', 'address': 'Tammsaare tee 116, Mustamäe', 'region': 'Mustamäe', 'lat': '59.4092427', 'lng': '24.6837355', 'description': ''},
{'name': 'HyperRimi Mustamäe', 'type': 'co', 'address': 'Sõpruse pst 174/176, Mustamäe', 'region': 'Mustamäe', 'lat': '59.4057994', 'lng': '24.7016746', 'description': '24h'},
{'name': 'Akadeemia postkontor', 'type': 'co', 'address': 'Akadeemia tee 24, Mustamäe', 'region': 'Mustamäe', 'lat': '59.3969442', 'lng': '24.6664280', 'description': '24h'},
{'name': 'Põhja-Eesti Regionaalhaigla', 'type': 'co', 'address': 'Sütiste tee 19, Mustamäe', 'region': 'Mustamäe', 'lat': '59.3981414', 'lng': '24.6977792', 'description': ''},
{'name': 'Maxima Sütiste', 'type': 'co', 'address': 'Sütiste tee 28, Mustamäe', 'region': 'Mustamäe', 'lat': '59.3977170', 'lng': '24.6900425', 'description': '24h'},
{'name': 'Magistrali kaubanduskeskus', 'type': 'co', 'address': 'Sõpruse pst 201/203, Mustamäe', 'region': 'Mustamäe', 'lat': '59.4023852', 'lng': '24.6973032', 'description': ''},
{'name': 'Marienthali kontor', 'type': 'co', 'address': 'Mustamäe tee 16, Mustamäe', 'region': 'Mustamäe', 'lat': '59.4222054', 'lng': '24.6979337', 'description': '24h'},
{'name': 'Jannseni kauplus', 'type': 'co', 'address': 'Vabaduse pst 128, Nõmme', 'region': 'Nõmme', 'lat': '59.3758955', 'lng': '24.6772312', 'description': '24h'},
{'name': 'Neste Laagri', 'type': 'co', 'address': 'Pärnu mnt 453e, Nõmme', 'region': 'Nõmme', 'lat': '59.3616975', 'lng': '24.6295674', 'description': '24h'},
{'name': 'Nõmme kaubanduskeskus', 'type': 'co', 'address': 'Jaama 2, Nõmme', 'region': 'Nõmme', 'lat': '59.3876373', 'lng': '24.6842067', 'description': '24h'},
{'name': 'Järve Selver', 'type': 'co', 'address': 'Pärnu mnt 234, Nõmme', 'region': 'Nõmme', 'lat': '59.3920956', 'lng': '24.7213354', 'description': '24h'},
{'name': 'Statoil Nõmme', 'type': 'co', 'address': 'Pärnu mnt 147, Nõmme', 'region': 'Nõmme', 'lat': '59.3920823', 'lng': '24.7213676', 'description': '24h'},
{'name': 'Männiku kauplus', 'type': 'co', 'address': 'Valdeku 112a, Nõmme', 'region': 'Nõmme', 'lat': '59.3767243', 'lng': '24.7109068', 'description': '24h'},
{'name': 'Pääsküla kauplus', 'type': 'co', 'address': 'Pärnu mnt 421, Nõmme', 'region': 'Nõmme', 'lat': '59.3693339', 'lng': '24.6379903', 'description': '24h'},
{'name': 'Statoil Laagri', 'type': 'co', 'address': 'Pärnu mnt 552, Nõmme', 'region': 'Nõmme', 'lat': '59.3620081', 'lng': '24.6293663', 'description': '24h'},
{'name': 'Nõmme kontor', 'type': 'co', 'address': 'Turuplats 5/7, Nõmme', 'region': 'Nõmme', 'lat': '59.3890285', 'lng': '24.6830002', 'description': '24h'},
{'name': 'Männiku Säästumarket', 'type': 'co', 'address': 'Männiku tee 98, Nõmme', 'region': 'Nõmme', 'lat': '59.3713747', 'lng': '24.7172378', 'description': '24h'},
{'name': 'Viimsi kaubanduskeskus', 'type': 'ci', 'address': 'Randvere tee 6, Viimsi, Harjumaa', 'region': 'Harjumaa', 'lat': '59.5074004', 'lng': '24.8306203', 'description': ''},
{'name': 'Kallavere kontor', 'type': 'ci', 'address': 'Nurga 3, Harjumaa', 'region': 'Harjumaa', 'lat': '59.4863061', 'lng': '25.0198758', 'description': '24h'},
{'name': 'Keila kontor', 'type': 'ci', 'address': 'Keskväljak 10, Harjumaa', 'region': 'Harjumaa', 'lat': '59.4460964', 'lng': '25.4493962', 'description': '24h'},
{'name': 'Põhjakeskuse kontor', 'type': 'ci', 'address': 'Tõrremäe küla, Rakvere vald, Lääne-Virumaa', 'region': 'Lääne-Virumaa', 'lat': '59.3500000', 'lng': '26.3000000', 'description': '24h'},
{'name': 'Rakvere kontor', 'type': 'ci', 'address': 'Laada 27, Rakvere, Lääne-Virumaa', 'region': 'Lääne-Virumaa', 'lat': '59.3485461', 'lng': '26.3632853', 'description': '24h'},
{'name': 'Jõhvi kontor', 'type': 'ci', 'address': 'Rakvere tee 5, Ida-Virumaa', 'region': 'Ida-Virumaa', 'lat': '59.3491062', 'lng': '26.3624132', 'description': '24h'},
{'name': 'Narva kontor', 'type': 'ci', 'address': 'Tallinna mnt 19c, Narva, Ida-Virumaa', 'region': 'Ida-Virumaa', 'lat': '59.3904908', 'lng': '28.1140419', 'description': '24h'},
{'name': 'Narva kontor', 'type': 'ci', 'address': 'Tallinna mnt 19c, Narva, Ida-Virumaa', 'region': 'Ida-Virumaa', 'lat': '59.3904908', 'lng': '28.1140419', 'description': '24h'},
{'name': 'Vikerkaare kontor', 'type': 'ci', 'address': 'Võidu 1, Narva, Ida-Virumaa', 'region': 'Ida-Virumaa', 'lat': '59.3789791', 'lng': '28.1788112', 'description': '24h'},
{'name': 'Kohtla-Järve kontor', 'type': 'ci', 'address': 'Keskalee 20, Kohtla-Järve, Ida-Virumaa', 'region': 'Ida-Virumaa', 'lat': '59.3987115', 'lng': '27.2504984', 'description': '24h'},
{'name': 'Sillamäe kontor', 'type': 'ci', 'address': 'Viru pst 6, Sillamäe, Ida-Virumaa', 'region': 'Ida-Virumaa', 'lat': '59.3925905', 'lng': '27.7766938', 'description': '24h'},
{'name': 'Iidla kontor', 'type': 'ci', 'address': 'Maleva 23, Kohtla-Järve, Ida-Virumaa', 'region': 'Ida-Virumaa', 'lat': '59.3284936', 'lng': '27.4201046', 'description': '24h'},
{'name': 'Kärdla kontor', 'type': 'ci', 'address': 'Keskväljak 5a, Kärdla, Hiiumaa', 'region': 'Hiiumaa', 'lat': '58.9975529', 'lng': '22.7471261', 'description': '24h'},
{'name': 'Haapsalu kontor', 'type': 'ci', 'address': 'Posti 41a, Haapsalu, Läänemaa', 'region': 'Läänemaa', 'lat': '58.9409117', 'lng': '23.5412763', 'description': '24h'},
{'name': 'Paide kontor', 'type': 'ci', 'address': 'Pärnu 6, Paide, Järvamaa', 'region': 'Järvamaa', 'lat': '58.8866213', 'lng': '25.5675651', 'description': '24h'},
{'name': 'Mustvee Konsum', 'type': 'ci', 'address': 'Tartu mnt 3, Mustvee, Jõgevamaa', 'region': 'Jõgevamaa', 'lat': '58.5786980', 'lng': '26.7573384', 'description': '24h'},
{'name': 'Jõgeva kontor', 'type': 'ci', 'address': 'Suur 18a, Jõgevamaa', 'region': 'Jõgevamaa', 'lat': '58.7459239', 'lng': '26.3949338', 'description': '24h'},
{'name': 'Kuressaare kontor', 'type': 'ci', 'address': 'Tallinna mnt 16, Kuressaare, Saaremaa', 'region': 'Saaremaa', 'lat': '58.2541738', 'lng': '22.4889479', 'description': '24h'},
{'name': 'Kontserdimaja kontor', 'type': 'ci', 'address': 'Aida 5, Pärnu, Pärnumaa', 'region': 'Pärnumaa', 'lat': '58.3869201', 'lng': '24.5010125', 'description': '24h'},
{'name': 'Pärnu Kaubamajakas', 'type': 'ci', 'address': 'Papiniidu 8/10, Pärnu, Pärnumaa', 'region': 'Pärnumaa', 'lat': '58.3722709', 'lng': '24.5510950', 'description': ''},
{'name': 'Viljandi kontor', 'type': 'ci', 'address': 'Tallinna mnt 7, Viljandi, Viljandimaa', 'region': 'Viljandimaa', 'lat': '58.3640881', 'lng': '25.5961493', 'description': '24h'},
{'name': 'Tartu Kaubamaja kontor', 'type': 'ci', 'address': 'Riia mnt 1, Tartu, Tartumaa', 'region': 'Tartumaa', 'lat': '58.3774381', 'lng': '26.7276934', 'description': ''},
{'name': 'Annelinna kontor', 'type': 'ci', 'address': 'Kalda tee 1c, Tartu, Tartumaa', 'region': 'Tartumaa', 'lat': '58.3740623', 'lng': '26.7509691', 'description': '24h'},
{'name': 'Annelinna kontor', 'type': 'ci', 'address': 'Kalda 1c, Tartumaa', 'region': 'Tartumaa', 'lat': '58.2266817', 'lng': '26.4081395', 'description': '24h'},
{'name': 'Dorpati kontor', 'type': 'ci', 'address': 'Turu 1, Tartu, Tartumaa', 'region': 'Tartumaa', 'lat': '58.3770040', 'lng': '26.7305686', 'description': '24h'},
{'name': 'Lõunakeskuse kontor', 'type': 'ci', 'address': 'Ringtee 75/73a, Tartu, Tartumaa', 'region': 'Tartumaa', 'lat': '58.3606393', 'lng': '26.6781802', 'description': '24h'},
{'name': 'Lõunakeskuse kontor', 'type': 'ci', 'address': 'Ringtee 75/73a, Tartu, Tartumaa', 'region': 'Tartumaa', 'lat': '58.3606393', 'lng': '26.6781802', 'description': '24h'},
{'name': 'Valga kontor', 'type': 'ci', 'address': 'Kesk 10, Valga, Valgamaa', 'region': 'Valgamaa', 'lat': '57.7775128', 'lng': '26.0341966', 'description': '24h'},
{'name': 'Põlva kontor', 'type': 'ci', 'address': 'Kesk 11, Põlva, Põlvamaa', 'region': 'Põlvamaa', 'lat': '58.0543399', 'lng': '27.0566693', 'description': '24h'},
{'name': 'Võru kontor', 'type': 'ci', 'address': 'Vabaduse 10a, Võrumaa', 'region': 'Võrumaa', 'lat': '57.8457298', 'lng': '26.9980237', 'description': '24h'},
{'name': 'Sõle kontor', 'type': 'ci', 'address': 'Kari 4, Tallinn, Põhja-Tallinn', 'region': 'Põhja-Tallinn', 'lat': '59.4481602', 'lng': '24.6965679', 'description': '24h'},
{'name': 'Sõle kontor', 'type': 'ci', 'address': 'Kari 4, Tallinn, Põhja-Tallinn', 'region': 'Põhja-Tallinn', 'lat': '59.4481602', 'lng': '24.6965679', 'description': '24h'},
{'name': 'Pirita Selveri kontor', 'type': 'ci', 'address': 'Rummu tee 4/4b, Tallinn, Pirita', 'region': 'Pirita', 'lat': '59.4628980', 'lng': '24.8278626', 'description': ''},
{'name': 'Õismäe kontor', 'type': 'ci', 'address': 'Õismäe tee 1b, Tallinn, Haabersti', 'region': 'Haabersti', 'lat': '59.4121416', 'lng': '24.6549841', 'description': '24h'},
{'name': 'Rocca Al Mare kontor', 'type': 'ci', 'address': 'Paldiski mnt 102, Tallinn, Haabersti', 'region': 'Haabersti', 'lat': '59.4244791', 'lng': '24.6500642', 'description': ''},
{'name': 'Rocca Al Mare kontor', 'type': 'ci', 'address': 'Paldiski mnt 102, Tallinn, Haabersti', 'region': 'Haabersti', 'lat': '59.4244791', 'lng': '24.6500642', 'description': ''},
{'name': 'Kristiine kontor', 'type': 'ci', 'address': 'Endla 45, Tallinn, Kristiine', 'region': 'Kristiine', 'lat': '59.4278874', 'lng': '24.7236110', 'description': ''},
{'name': 'Kristiine kaubanduskeskuse kontor', 'type': 'ci', 'address': 'Endla 45, Tallinn, Kristiine', 'region': 'Kristiine', 'lat': '59.4278874', 'lng': '24.7236110', 'description': ''},
{'name': 'Järve Selveri kontor', 'type': 'ci', 'address': 'Pärnu mnt 238, Tallinn, Kristiine', 'region': 'Kristiine', 'lat': '59.3918666', 'lng': '24.7203988', 'description': ''},
{'name': 'Rävala kontor', 'type': 'ci', 'address': 'Rävala 5, Tallinn, Kesklinn', 'region': 'Kesklinn', 'lat': '59.4334380', 'lng': '24.7550406', 'description': '24h'},
{'name': 'Kawe kontor', 'type': 'ci', 'address': 'Pärnu mnt 15, Tallinn, Kesklinn', 'region': 'Kesklinn', 'lat': '59.4264378', 'lng': '24.7427265', 'description': '24h'},
{'name': 'Viru keskus', 'type': 'ci', 'address': 'Viru väljak 4, Tallinn, Kesklinn', 'region': 'Kesklinn', 'lat': '59.4368346', 'lng': '24.7539243', 'description': ''},
{'name': 'Liivalaia kontor', 'type': 'ci', 'address': 'Liivalaia 8, Tallinn, Kesklinn', 'region': 'Kesklinn', 'lat': '59.4275374', 'lng': '24.7455502', 'description': '24h'},
{'name': 'Liivalaia kontor', 'type': 'ci', 'address': 'Liivalaia 8, Tallinn, Kesklinn', 'region': 'Kesklinn', 'lat': '59.4275374', 'lng': '24.7455502', 'description': '24h'},
{'name': 'Foorumi kontor', 'type': 'ci', 'address': 'Narva mnt 5, Tallinn, Kesklinn', 'region': 'Kesklinn', 'lat': '59.4372788', 'lng': '24.7585178', 'description': '24h'},
{'name': 'Foorumi kontor', 'type': 'ci', 'address': 'Narva mnt 5, Tallinn, Kesklinn', 'region': 'Kesklinn', 'lat': '59.4372788', 'lng': '24.7585178', 'description': '24h'},
{'name': 'Lincona maja', 'type': 'ci', 'address': 'Pärnu mnt 139, Tallinn, Kesklinn', 'region': 'Kesklinn', 'lat': '59.4107302', 'lng': '24.7372119', 'description': '24h'},
{'name': 'Sikupilli kontor', 'type': 'ci', 'address': 'Tartu mnt 87, Tallinn, Lasnamäe', 'region': 'Lasnamäe', 'lat': '59.4251787', 'lng': '24.7799424', 'description': ''},
{'name': 'Pae kontor', 'type': 'ci', 'address': 'Pae 80, Tallinn, Lasnamäe', 'region': 'Lasnamäe', 'lat': '59.4362862', 'lng': '24.8199199', 'description': '24h'},
{'name': 'Lasnamäe Centrumi kontor', 'type': 'ci', 'address': 'Mustakivi 13, Tallinn, Lasnamäe', 'region': 'Lasnamäe', 'lat': '59.4406383', 'lng': '24.8677953', 'description': '24h'},
{'name': 'Ülemiste kontor', 'type': 'ci', 'address': 'Suur-Sõjamäe 4, Tallinn, Lasnamäe', 'region': 'Lasnamäe', 'lat': '59.4230240', 'lng': '24.7957187', 'description': ''},
{'name': 'Lasnamäe Centrumi kontor', 'type': 'ci', 'address': 'Mustakivi tee 13, Tallinn, Lasnamäe', 'region': 'Lasnamäe', 'lat': '59.4406383', 'lng': '24.8677953', 'description': ''},
{'name': 'Sikupilli kaubanduskeskus', 'type': 'ci', 'address': 'Tartu mnt 87, Tallinn, Lasnamäe', 'region': 'Lasnamäe', 'lat': '59.4251787', 'lng': '24.7799424', 'description': ''},
{'name': 'Ülemiste kontor', 'type': 'ci', 'address': 'Suur-Sõjamäe 4, Tallinn, Lasnamäe', 'region': 'Lasnamäe', 'lat': '59.4230240', 'lng': '24.7957187', 'description': ''},
{'name': 'Mustakivi kontor', 'type': 'ci', 'address': 'Mahtra 27, Tallinn, Lasnamäe', 'region': 'Lasnamäe', 'lat': '59.4427838', 'lng': '24.8763120', 'description': '24h'},
{'name': 'Marienthali kontor', 'type': 'ci', 'address': 'Mustamäe tee 16, Tallinn, Mustamäe', 'region': 'Mustamäe', 'lat': '59.4222054', 'lng': '24.6979337', 'description': '24h'},
{'name': 'Sõpruse pst kontor', 'type': 'ci', 'address': 'Sõpruse pst 237/239, Tallinn, Mustamäe', 'region': 'Mustamäe', 'lat': '59.3992287', 'lng': '24.6858688', 'description': '24h'},
{'name': 'Nõmme kontor', 'type': 'ci', 'address': 'Turuplats 5/7, Tallinn, Nõmme', 'region': 'Nõmme', 'lat': '59.3890285', 'lng': '24.6830002', 'description': '24h'}]