[{'name': 'Jurgiškių g. 43, Alytus', 'description': 'Prekybos centras "Norfa XL"', 'lat': '54.396632000000', 'lng': '24.010298000000', 'type': 'co'},{'name': 'Pulko g. 5, Alytus', 'description': 'Alytaus klientų aptarnavimo skyrius', 'lat': '54.397175000000', 'lng': '24.046233000000', 'type': 'co'},{'name': 'Ūdrijos g. 1 / Naujoji g. 7E, Alytus', 'description': 'Prekybos centras "Rimi Hypermarket"', 'lat': '54.413136000000', 'lng': '24.017773000000', 'type': 'co'},{'name': 'A. Baranausko a. 1/2, Anykščiai', 'description': 'Anykščių klientų aptarnavimo poskyris', 'lat': '55.526031000000', 'lng': '25.104010000000', 'type': 'co'},{'name': 'Kęstučio g. 10, Biržai', 'description': 'Biržų klientų aptarnavimo poskyris', 'lat': '56.202288000000', 'lng': '24.754164000000', 'type': 'co'},{'name': 'Vytauto g. 22, Biržai', 'description': 'Parduotuvė "EMA"', 'lat': '56.199402000000', 'lng': '24.755904000000', 'type': 'co'},{'name': 'M. K. Čiurlionio g. 50, Druskininkai', 'description': 'Prekybos centras "Aidas"', 'lat': '54.016065000000', 'lng': '23.978212000000', 'type': 'co'},{'name': 'Gegužės a. 21, Eišiškės', 'description': 'Parduotuvė "Filara"', 'lat': '54.169627000000', 'lng': '24.995715000000', 'type': 'co'},{'name': 'Draugystės g. 13, Elektrėnai', 'description': 'Elektrėnų klientų aptarnavimo poskyris', 'lat': '54.785409000000', 'lng': '24.667633000000', 'type': 'co'},{'name': 'Klaipėdos g. 17, Gargždai', 'description': 'Gargždų klientų aptarnavimo poskyris', 'lat': '55.710746000000', 'lng': '21.394989000000', 'type': 'co'},{'name': 'P. Cvirkos g. 8, Gargždai', 'description': 'Parduotuvė "Maxima X"', 'lat': '55.709330000000', 'lng': '21.396397000000', 'type': 'co'},{'name': 'S. Lozoraičio g. 2, Garliava', 'description': 'Prekybos centras "IKI"', 'lat': '54.832302000000', 'lng': '23.876405000000', 'type': 'co'},{'name': 'Vasario 16-osios g. 10, Ignalina', 'description': 'Ignalinos klientų aptarnavimo poskyris', 'lat': '55.341907000000', 'lng': '26.163194000000', 'type': 'co'},{'name': 'Chemikų g. 37, Jonava', 'description': 'Parduotuvė "Maxima X"', 'lat': '55.073371000000', 'lng': '24.259370000000', 'type': 'co'},{'name': 'Žeimių g. 21, Jonava', 'description': 'Prekybos centras "Norfa XL"', 'lat': '55.082330000000', 'lng': '24.272626000000', 'type': 'co'},{'name': 'Žeimių g. 5, Jonava', 'description': 'Jonavos klientų aptarnavimo poskyris', 'lat': '55.072879000000', 'lng': '24.277883000000', 'type': 'co'},{'name': 'Miesto a. 5, Joniškis', 'description': 'Parduotuvė "Grūstė"', 'lat': '56.359100000000', 'lng': '23.256361000000', 'type': 'co'},{'name': 'Upytės g. 19, Joniškis', 'description': 'Prekybos centras "Maxima XX"', 'lat': '56.239806000000', 'lng': '23.618902000000', 'type': 'co'},{'name': 'S. Dariaus ir S. Girėno g. 66, Jurbarkas', 'description': 'Parduotuvė "Maxima X"', 'lat': '55.081810000000', 'lng': '23.255913000000', 'type': 'co'},{'name': 'S. Dariaus ir S. Girėno g. 81A, Jurbarkas', 'description': 'Jurbarko klientų aptarnavimo poskyris ', 'lat': '55.079252000000', 'lng': '22.776539000000', 'type': 'co'},{'name': 'Gedimino g. 109, Kaišiadorys', 'description': 'Parduotuvė "Maxima X"', 'lat': '54.856817000000', 'lng': '24.444148000000', 'type': 'co'},{'name': 'Gedimino g. 16, Kaišiadorys', 'description': 'Kaišiadorių klientų aptarnavimo poskyris', 'lat': '54.863420000000', 'lng': '24.459722000000', 'type': 'co'},{'name': 'Ateities pl. 50, Kaunas', 'description': 'Prekybos centras "Lytagra"', 'lat': '54.901131000000', 'lng': '24.020557000000', 'type': 'co'},{'name': 'Islandijos pl. 32, Kaunas', 'description': 'Prekybos centras "Mega"', 'lat': '54.915357000000', 'lng': '23.938919000000', 'type': 'co'},{'name': 'Jonavos g. 3, Kaunas', 'description': 'Prekybos centras "IKI"', 'lat': '54.900331000000', 'lng': '23.892125000000', 'type': 'co'},{'name': 'Juozapavičiaus g. 84, Kaunas', 'description': 'Prekybos centras Norfa XXL', 'lat': '54.876647000000', 'lng': '23.934941000000', 'type': 'co'},{'name': 'K. Donelaičio g. 27, Kaunas', 'description': 'Viešbutis "Reval Hotel Neris"', 'lat': '54.898787000000', 'lng': '23.919720000000', 'type': 'co'},{'name': 'Karaliaus Mindaugo pr. 49, Kaunas', 'description': 'Prekybos ir pramogų centras "Akropolis"', 'lat': '54.890686000000', 'lng': '23.918841000000', 'type': 'co'},{'name': 'Laisvės al. 86, Kaunas', 'description': 'Kauno klientų aptarnavimo skyrius', 'lat': '54.897747000000', 'lng': '23.908544000000', 'type': 'co'},{'name': 'Pramonės pr. 29, Kaunas', 'description': 'Prekybos centras "Maxima XXX"', 'lat': '54.911830000000', 'lng': '23.983388000000', 'type': 'co'},{'name': 'Rotušės a. 27 , Kaunas', 'description': 'Galerija "Meno parkas" ', 'lat': '54.897177000000', 'lng': '23.887281000000', 'type': 'co'},{'name': 'Savanorių pr. 221, Kaunas', 'description': 'Tvirtovės klientų aptarnavimo poskyris', 'lat': '54.915125000000', 'lng': '23.942994000000', 'type': 'co'},{'name': 'Savanorių pr. 255, Kaunas', 'description': 'Prekybos centras "Hyper Maxima XXX"', 'lat': '54.913595000000', 'lng': '23.939218000000', 'type': 'co'},{'name': 'Savanorių pr. 346, Kaunas', 'description': 'Prekybos centras "Savas"', 'lat': '54.923674000000', 'lng': '23.962112000000', 'type': 'co'},{'name': 'Savanorių pr. 363A, Kaunas', 'description': 'Kalniečių klientų aptarnavimo skyrius', 'lat': '54.921916000000', 'lng': '23.957374000000', 'type': 'co'},{'name': 'Šarkuvos g. 1A, Kaunas', 'description': 'Prekybos centras "Maxima XX"', 'lat': '54.933208000000', 'lng': '23.886588000000', 'type': 'co'},{'name': 'V. Krevės pr. 43A, Kaunas', 'description': 'Prekybos centras "RIMI"', 'lat': '54.917383000000', 'lng': '23.965762000000', 'type': 'co'},{'name': 'Veiverių g. 150B, Kaunas', 'description': 'Prekybos centras "Maxima bazė"', 'lat': '54.864428000000', 'lng': '23.886388000000', 'type': 'co'},{'name': 'Vytauto g. 19, Kazlų Rūda', 'description': 'Parduotuvė "Cento"', 'lat': '54.751873000000', 'lng': '23.499627000000', 'type': 'co'},{'name': 'J. Basanavičiaus g. 53, Kėdainiai', 'description': 'Prekybos centras "Maxima XX"', 'lat': '55.284072000000', 'lng': '23.970282000000', 'type': 'co'},{'name': 'Janušavos km., Kėdainiai', 'description': 'Prekybos centras "Norfa XL"', 'lat': '55.294206000000', 'lng': '23.945110000000', 'type': 'co'},{'name': 'Laisvės gynėjų a. 16, Kelmė', 'description': 'Kelmės klientų aptarnavimo poskyris', 'lat': '55.629813000000', 'lng': '22.934281000000', 'type': 'co'},{'name': 'Vytauto Didžiojo g. 80A, Kelmė', 'description': 'Prekybos centras "TAU" ', 'lat': '55.630999000000', 'lng': '22.933981000000', 'type': 'co'},{'name': 'J. Basanavičiaus g. 45, Kybartai', 'description': 'Parduotuvė "Cento"', 'lat': '54.638419000000', 'lng': '22.762735000000', 'type': 'co'},{'name': 'Debreceno g. 54, Klaipėda', 'description': 'Prekybos centras "IKI"', 'lat': '55.679637000000', 'lng': '21.168833000000', 'type': 'co'},{'name': 'J. Janonio g. 21, Klaipėda', 'description': 'Parduotuvė "Ikiukas"', 'lat': '55.718901000000', 'lng': '21.119429000000', 'type': 'co'},{'name': 'Kuosų g. 20, Klaipėda', 'description': 'Pilsoto klientų aptarnavimo poskyris (Dangoraižis „Pilsotas“)', 'lat': '55.690960000000', 'lng': '21.146792000000', 'type': 'co'},{'name': 'Liepojos g. 10, Klaipėda', 'description': 'Prekybos centras "Maxima XX"', 'lat': '55.731466000000', 'lng': '21.126349000000', 'type': 'co'},{'name': 'Liepų g. 10, Klaipėda', 'description': 'Klaipėdos klientų aptarnavimo skyrius', 'lat': '55.712486000000', 'lng': '21.134301000000', 'type': 'co'},{'name': 'Sudmantų km., Klaipėda', 'description': 'Prekybos centras "Ermitažas"', 'lat': '55.704411000000', 'lng': '21.210480000000', 'type': 'co'},{'name': 'Šilutės pl. 35, Klaipėda', 'description': 'Prekybos centras "Banginis"', 'lat': '55.692459000000', 'lng': '21.182034000000', 'type': 'co'},{'name': 'Taikos pr. 115, Klaipėda', 'description': 'Prekybos centras "IKI"', 'lat': '55.670518000000', 'lng': '21.171526000000', 'type': 'co'},{'name': 'Taikos pr. 5, Klaipėda', 'description': 'Prekybos centras "Saturnas" ', 'lat': '55.705192000000', 'lng': '21.142861000000', 'type': 'co'},{'name': 'Taikos pr. 61, Klaipėda', 'description': 'Prekybos ir pramogų centras "Akropolis"', 'lat': '55.691084000000', 'lng': '21.154253000000', 'type': 'co'},{'name': 'Taikos pr. 61, Klaipėda', 'description': 'Taikos klientų aptarnavimo poskyris. Bankomatas su pinigų įnešimo funkcija*', 'lat': '55.693072000000', 'lng': '21.153973000000', 'type': 'co'},{'name': 'Taikos pr. 80, Klaipėda', 'description': 'Prekybos pastatas "Naujasis turgus"', 'lat': '55.674301000000', 'lng': '21.167162000000', 'type': 'co'},{'name': 'Vingio g. 29, Klaipėda', 'description': 'Prekybos centras "RIMI"', 'lat': '55.668126000000', 'lng': '21.196368000000', 'type': 'co'},{'name': 'Klaipėdos g. 14, Kretinga', 'description': 'Prekybos centras "Norfa XL"', 'lat': '55.884917000000', 'lng': '21.230786000000', 'type': 'co'},{'name': 'Vilniaus g. 1, Kretinga', 'description': 'Kretingos klientų aptarnavimo poskyris', 'lat': '55.892000000000', 'lng': '21.241633000000', 'type': 'co'},{'name': 'Pergalės g. 8, Kupiškis', 'description': 'Prekybos centras „Norfa XL“', 'lat': '55.905647000000', 'lng': '24.802612000000', 'type': 'co'},{'name': 'Vytauto g. 3, Kupiškis', 'description': 'Parduotuvė "Maxima X"', 'lat': '55.839056000000', 'lng': '24.976741000000', 'type': 'co'},{'name': 'J. Basanavičiaus g. 3, Kuršėnai', 'description': 'Kuršėnų klientų aptarnavimo poskyris', 'lat': '56.003231000000', 'lng': '22.936752000000', 'type': 'co'},{'name': 'Vilniaus g. 2, Kuršėnai', 'description': 'Parduotuvė „Norfa L“', 'lat': '56.002212000000', 'lng': '22.938739000000', 'type': 'co'},{'name': 'Kauno g. 5, Lazdijai', 'description': 'Lazdijų klientų aptarnavimo poskyris', 'lat': '54.235483000000', 'lng': '23.515320000000', 'type': 'co'},{'name': 'Seinų g. 4, Lazdijai', 'description': 'Prekybos centras "IKI"', 'lat': '54.233221000000', 'lng': '23.515607000000', 'type': 'co'},{'name': 'Bažnyčios g. 38, Marijampolė', 'description': 'Prekybos centras "Maxima XX"', 'lat': '54.555157000000', 'lng': '23.346663000000', 'type': 'co'},{'name': 'Gedimino g. 96, Marijampolė', 'description': 'Parduotuvė "Maxima X"', 'lat': '54.553852000000', 'lng': '23.372541000000', 'type': 'co'},{'name': 'Laisvės g. 16, Marijampolė', 'description': 'Marijampolės klientų aptarnavimo skyrius', 'lat': '54.555034000000', 'lng': '23.351322000000', 'type': 'co'},{'name': 'Vytauto g. 28, Marijampolė', 'description': 'Marijampolės apskr. viršininko administracija', 'lat': '54.552346000000', 'lng': '23.348484000000', 'type': 'co'},{'name': 'Laisvės g. 9/4, Mažeikiai', 'description': 'Mažeikių klientų aptarnavimo poskyris', 'lat': '56.311782000000', 'lng': '22.346985000000', 'type': 'co'},{'name': 'Sedos g. 18, Mažeikiai', 'description': 'Prekybos centras "IKI"', 'lat': '56.303067000000', 'lng': '22.342082000000', 'type': 'co'},{'name': 'Žemaitijos g. 20, Mažeikiai', 'description': 'Prekybos centras "Maxima XX"', 'lat': '56.305390000000', 'lng': '22.331809000000', 'type': 'co'},{'name': 'Gardino g. 2, Merkinė', 'description': 'Parduotuvė „Cento“', 'lat': '54.162506000000', 'lng': '24.185623000000', 'type': 'co'},{'name': 'Melioratorių g. 2, Molėtai', 'description': 'Statybinių ir buities prekių parduotuvė „ORFIS“', 'lat': '55.221275000000', 'lng': '25.405870000000', 'type': 'co'},{'name': 'Vilniaus g. 47, Molėtai', 'description': 'Molėtų klientų aptarnavimo poskyris', 'lat': '55.231602000000', 'lng': '25.418876000000', 'type': 'co'},{'name': 'Respublikos g. 1A, N. Akmenė', 'description': 'N. Akmenės klientų aptarnavimo poskyris', 'lat': '56.321249000000', 'lng': '22.879756000000', 'type': 'co'},{'name': 'Respublikos g. 30, N. Akmenė', 'description': 'Prekybos centras "Norfa XL"', 'lat': '56.320431000000', 'lng': '22.872829000000', 'type': 'co'},{'name': 'Keisūnų g. 2, Pabradė', 'description': 'Parduotuvė "Selmina" ', 'lat': '54.984118000000', 'lng': '25.773378000000', 'type': 'co'},{'name': 'Statybininkų g. 8, Pakruojis', 'description': 'Parduotuvė "Laima"', 'lat': '55.979659000000', 'lng': '23.858136000000', 'type': 'co'},{'name': 'Vytauto Didžiojo g. 32, Pakruojis', 'description': 'UAB "Pakruojo parketas"', 'lat': '55.978298000000', 'lng': '23.849416000000', 'type': 'co'},{'name': 'Plytų g. 9, Palanga', 'description': 'Palangos klientų aptarnavimo poskyris', 'lat': '55.915954000000', 'lng': '21.070507000000', 'type': 'co'},{'name': 'Klaipėdos g. 92, Panevėžys', 'description': 'Prekybos centras "Maxima XX"', 'lat': '55.728761000000', 'lng': '24.329556000000', 'type': 'co'},{'name': 'Nemuno g. 29, Panevėžys', 'description': 'Prekybos centras "Norfa XL"', 'lat': '55.719808000000', 'lng': '24.350732000000', 'type': 'co'},{'name': 'Respublikos g. 56, Panevėžys', 'description': 'Panevėžio klientų aptarnavimo skyrius', 'lat': '55.733759000000', 'lng': '24.357987000000', 'type': 'co'},{'name': 'S. Dariaus ir S. Girėno g. 35, Panevėžys', 'description': 'Prekybos centras "Norfa XL"', 'lat': '55.734942000000', 'lng': '24.322995000000', 'type': 'co'},{'name': 'Savitiškio g. 61, Panevėžys', 'description': 'Prekybos centras "Babilonas" ', 'lat': '55.728734000000', 'lng': '24.315289000000', 'type': 'co'},{'name': 'Ukmergės g. 23, Panevėžys', 'description': 'Prekybos centras "Maxima XX"', 'lat': '55.728143000000', 'lng': '24.368912000000', 'type': 'co'},{'name': 'Vilniaus g. 48, Pasvalys', 'description': 'Parduotuvė "Maxima X"', 'lat': '56.057140000000', 'lng': '24.406774000000', 'type': 'co'},{'name': 'Vilniaus g. 9, Pasvalys', 'description': 'Pasvalio klientų aptarnavimo poskyris', 'lat': '56.060352000000', 'lng': '24.402362000000', 'type': 'co'},{'name': 'A. Jucio g. 5 / I. Končiaus g. 23, Plungė', 'description': 'Parduotuvė "Maxima X"', 'lat': '55.905478000000', 'lng': '21.836276000000', 'type': 'co'},{'name': 'Telšių g. 5, Plungė', 'description': 'Plungės klientų aptarnavimo poskyris', 'lat': '55.912303000000', 'lng': '21.848368000000', 'type': 'co'},{'name': 'J. Basanavičiaus g. 15, Prienai', 'description': 'Parduotuvė "Maxima X"', 'lat': '54.638319000000', 'lng': '23.944833000000', 'type': 'co'},{'name': 'Kauno g. 34, Prienai', 'description': 'Prekybos centras "Norfa XL"', 'lat': '54.646052000000', 'lng': '23.948218000000', 'type': 'co'},{'name': 'Laisvės a. 4, Prienai', 'description': 'Prienų klientų aptarnavimo poskyris', 'lat': '54.636122000000', 'lng': '23.947461000000', 'type': 'co'},{'name': 'S. Dariaus ir S. Girėno g. 30, Radviliškis', 'description': 'Radviliškio klientų aptarnavimo poskyris', 'lat': '55.809798000000', 'lng': '23.537387000000', 'type': 'co'},{'name': 'Vasario 16-osios g. 11, Radviliškis', 'description': 'Kooperatinė bendrovė "Radviliškio prekyba"', 'lat': '55.807023000000', 'lng': '23.540386000000', 'type': 'co'},{'name': 'Maironio g. 64, Raseiniai', 'description': 'Parduotuvė "Maxima X"', 'lat': '55.386493000000', 'lng': '23.126510000000', 'type': 'co'},{'name': 'Vytauto Didžiojo g. 21, Raseiniai', 'description': 'Raseinių klientų aptarnavimo poskyris', 'lat': '55.382518000000', 'lng': '23.117983000000', 'type': 'co'},{'name': 'Plungės g. 1, Rietavas', 'description': 'Prekybos centras "IKI"', 'lat': '55.722231000000', 'lng': '21.931460000000', 'type': 'co'},{'name': 'Kauno g. 7, Rokiškis', 'description': 'Rokiškio klientų aptarnavimo poskyris', 'lat': '55.964305000000', 'lng': '25.590924000000', 'type': 'co'},{'name': 'Nepriklausomybės a. 26/2, Rokiškis', 'description': 'Parduotuvė "Maxima X"', 'lat': '55.964035000000', 'lng': '25.586310000000', 'type': 'co'},{'name': 'Nepriklausomybės g. 4, Šakiai', 'description': 'Šakių klientų aptarnavimo poskyris', 'lat': '54.779598000000', 'lng': '23.199407000000', 'type': 'co'},{'name': 'V. Kudirkos g. 66, Šakiai', 'description': 'Parduotuvė "Maxima X"', 'lat': '54.954385000000', 'lng': '23.039609000000', 'type': 'co'},{'name': 'Architekto g. 3, Šalčininkai', 'description': 'Šalčininkų klientų aptarnavimo poskyris', 'lat': '54.308331000000', 'lng': '25.385999000000', 'type': 'co'},{'name': 'Sniadeckio g. 11, Šalčininkai', 'description': 'Parduotuvė "Maxima X"', 'lat': '54.313250000000', 'lng': '25.383758000000', 'type': 'co'},{'name': 'Aido g. 8, Šiauliai', 'description': 'Prekybos ir pramogų centras "Akropolis"', 'lat': '55.908435000000', 'lng': '23.260062000000', 'type': 'co'},{'name': 'Dvaro g. 96, Šiauliai', 'description': 'Šiaulių klientų aptarnavimo skyrius', 'lat': '55.935592000000', 'lng': '23.316949000000', 'type': 'co'},{'name': 'Pramonės g. 6, Šiauliai', 'description': 'Prekybos centras "Bruklinas"', 'lat': '55.913746000000', 'lng': '23.304622000000', 'type': 'co'},{'name': 'Tilžės g. 170, Šiauliai', 'description': 'Projektavimo institutas', 'lat': '55.932608000000', 'lng': '23.317454000000', 'type': 'co'},{'name': 'Vilniaus g. 137A, Šiauliai', 'description': 'Prekybos centras "Maxima XX"', 'lat': '55.928627000000', 'lng': '23.319731000000', 'type': 'co'},{'name': 'Vilniaus g. 212, Šiauliai', 'description': 'Šiaulių turgavietė', 'lat': '55.937347000000', 'lng': '23.304947000000', 'type': 'co'},{'name': 'J. Basanavičiaus g. 13, Šilalė', 'description': 'Šilalės klientų aptarnavimo poskyris', 'lat': '55.490517000000', 'lng': '22.184880000000', 'type': 'co'},{'name': 'Nepriklausomybės g. 13A, Šilalė', 'description': 'PC "Norfa XL"', 'lat': '55.491489000000', 'lng': '22.189106000000', 'type': 'co'},{'name': 'S. Dariaus ir S. Girėno g. 12 / Lokystos g. 1, Šilalė', 'description': 'PC "Maxima X"', 'lat': '55.490674000000', 'lng': '22.180081000000', 'type': 'co'},{'name': 'Cintjoniškių g. 13, Šilutė', 'description': 'PC "Norfa XL"', 'lat': '55.349901000000', 'lng': '21.473911000000', 'type': 'co'},{'name': 'Lietuvininkų g. 39, Šilutė', 'description': 'PC "IKI"', 'lat': '55.343441000000', 'lng': '21.472638000000', 'type': 'co'},{'name': 'Vilniaus g. 38, Širvintos', 'description': 'Širvintų klientų aptarnavimo poskyris', 'lat': '55.043537000000', 'lng': '24.954728000000', 'type': 'co'},{'name': 'Vytauto g. 2, Skuodas', 'description': 'Parduotuvė "Maxima X"', 'lat': '56.270324000000', 'lng': '21.530781000000', 'type': 'co'},{'name': 'Žemutinės g. 47, Švenčionėliai', 'description': 'Prekybos centras "Norfa XL" ', 'lat': '55.169247000000', 'lng': '26.009614000000', 'type': 'co'},{'name': 'Vilniaus g. 37, Švenčionys', 'description': 'Parduotuvė "Maxima X" ', 'lat': '55.159046000000', 'lng': '25.996702000000', 'type': 'co'},{'name': 'Vilniaus g. 8/2, Švenčionys', 'description': 'Parduotuvė "Lakaja"', 'lat': '55.162360000000', 'lng': '25.997241000000', 'type': 'co'},{'name': 'Gedimino g. 21A, Tauragė', 'description': 'PC "IKI"', 'lat': '55.252607000000', 'lng': '22.298542000000', 'type': 'co'},{'name': 'S. Dariaus ir S. Girėno g. 63, Tauragė', 'description': 'Parduotuvė "Maxima X"', 'lat': '55.261284000000', 'lng': '22.299882000000', 'type': 'co'},{'name': 'S. Dariaus ir S. Girėno g. 7/81, Tauragė', 'description': 'Tauragės klientų aptarnavimo skyrius', 'lat': '55.253437000000', 'lng': '22.286345000000', 'type': 'co'},{'name': 'Kęstučio g. 4, Telšiai', 'description': 'PC "Tulpė"', 'lat': '55.984015000000', 'lng': '22.249763000000', 'type': 'co'},{'name': 'Luokės g. 76, Telšiai', 'description': 'PC "Norfa XL"', 'lat': '55.975282000000', 'lng': '22.268118000000', 'type': 'co'},{'name': 'Plungės g. 49A, Telšiai', 'description': 'Parduotuvė "Pas Stanislovą" ', 'lat': '55.978904000000', 'lng': '22.219978000000', 'type': 'co'},{'name': 'Turgaus a. 17A, Telšiai', 'description': 'Telšių klientų aptarnavimo skyrius', 'lat': '55.983827000000', 'lng': '22.252419000000', 'type': 'co'},{'name': 'Vytauto g. 55, Trakai', 'description': 'Trakų klientų aptarnavimo poskyris', 'lat': '54.640309000000', 'lng': '24.932673000000', 'type': 'co'},{'name': 'Kauno g. 30, Ukmergė', 'description': 'Ukmergės klientų aptarnavimo skyrius', 'lat': '55.247578000000', 'lng': '24.760024000000', 'type': 'co'},{'name': 'Žiedo g. 1, Ukmergė', 'description': 'Prekybos centras "Maxima XX"', 'lat': '55.243301000000', 'lng': '24.743029000000', 'type': 'co'},{'name': 'J. Basanavičiaus g. 61, Utena', 'description': 'Utenos klientų aptarnavimo skyrius', 'lat': '55.498662000000', 'lng': '25.602774000000', 'type': 'co'},{'name': 'J. Basanavičiaus g. 93, Utena', 'description': 'Utenos vartotojų kooperatyvas', 'lat': '55.500835000000', 'lng': '25.612848000000', 'type': 'co'},{'name': 'M. K. Čiurlionio g. 61, Varėna', 'description': 'VĮ Pirminės sveikatos priežiūros centras', 'lat': '54.217611000000', 'lng': '24.569034000000', 'type': 'co'},{'name': 'Vytauto g. 6, Varėna', 'description': 'Varėnos klientų aptarnavimo poskyris', 'lat': '54.209930000000', 'lng': '24.571786000000', 'type': 'co'},{'name': 'Kauno g. 24/1, Vievis', 'description': 'Parduotuvė "Maxima x" ', 'lat': '54.771648000000', 'lng': '24.819215000000', 'type': 'co'},{'name': 'Gedimino g. 16, Vilkaviškis', 'description': 'Vilkaviškio klientų aptarnavimo poskyris', 'lat': '54.652377000000', 'lng': '23.038748000000', 'type': 'co'},{'name': 'J. Basanavičiaus g. 1, Vilkaviškis', 'description': 'Prekybos centras "Maxima XX"', 'lat': '54.642495000000', 'lng': '22.744180000000', 'type': 'co'},{'name': 'S. Nėries g. 1, Vilkaviškis', 'description': 'Vilkaviškio rajono savivaldybės pastatas', 'lat': '54.638653000000', 'lng': '22.773360000000', 'type': 'co'},{'name': 'Čekiškės g. 86, Vilkija', 'description': 'Parduotuvė "Raučulys"', 'lat': '55.042775000000', 'lng': '23.586034000000', 'type': 'co'},{'name': 'A. Vienuolio g. 4, Vilnius', 'description': 'Kazino ir pramogų kompleksas "Grand Casino World"', 'lat': '54.688268000000', 'lng': '25.277022000000', 'type': 'co'},{'name': 'Antakalnio g. 73, Vilnius', 'description': 'Prekybos centras "IKI"', 'lat': '54.714420000000', 'lng': '25.315820000000', 'type': 'co'},{'name': 'Antakalnio g. 86, Vilnius', 'description': 'Antakalnio klientų aptarnavimo poskyris', 'lat': '54.712851000000', 'lng': '25.314842000000', 'type': 'co'},{'name': 'Gedimino pr. 49A, Vilnius', 'description': 'Gedimino klientų aptarnavimo poskyris', 'lat': '54.689901000000', 'lng': '25.264040000000', 'type': 'co'},{'name': 'J. Basanavičiaus g. 24/1, Vilnius', 'description': 'AB DnB banko pagrindinė buveinė', 'lat': '54.681745000000', 'lng': '25.269284000000', 'type': 'co'},{'name': 'Jeruzalės g. 4, Vilnius', 'description': 'Prekybos centras "RIMI" ', 'lat': '54.740330000000', 'lng': '25.275199000000', 'type': 'co'},{'name': 'Kalvarijų g. 98, Vilnius', 'description': 'Prekybos centras "Maxima XX"', 'lat': '54.705394000000', 'lng': '25.283553000000', 'type': 'co'},{'name': 'Konstitucijos pr. 7A, Vilnius', 'description': 'Prekybos centras "Europa"', 'lat': '54.695662000000', 'lng': '25.277226000000', 'type': 'co'},{'name': 'Laisvės pr. 28, Vilnius', 'description': 'Karoliniškių klientų aptarnavimo poskyris (SODROS administracinis pastatas)', 'lat': '54.690586000000', 'lng': '25.213366000000', 'type': 'co'},{'name': 'Laisvės pr. 82, Vilnius', 'description': 'Prekybos centras "Norfa XL"', 'lat': '54.722789000000', 'lng': '25.233487000000', 'type': 'co'},{'name': 'Liepkalnio g. 112, Vilnius', 'description': 'Prekybos centras "Maxima XX"', 'lat': '54.653584000000', 'lng': '25.303842000000', 'type': 'co'},{'name': 'Lvovo g. 25 , Vilnius', 'description': 'Konstitucijos klientų aptarnavimo skyrius ', 'lat': '54.696405000000', 'lng': '25.278551000000', 'type': 'co'},{'name': 'Mindaugo g. 11/2, Vilnius', 'description': 'Prekybos centras "Maxima"', 'lat': '54.677965000000', 'lng': '25.273437000000', 'type': 'co'},{'name': 'Naugarduko g. 100, Vilnius', 'description': 'Naujamiesčio klientų aptarnavimo poskyris', 'lat': '54.668007000000', 'lng': '25.255582000000', 'type': 'co'},{'name': 'Ozo g. 25, Vilnius', 'description': 'Vilniaus Akropolio klientų aptarnavimo poskyris. Bankomatas su pinigų įnešimo funkcija*', 'lat': '54.710358000000', 'lng': '25.253180000000', 'type': 'co'},{'name': 'Ozo g. 25, Vilnius', 'description': 'Prekybos ir pramogų centras "Akropolis" (Swedbank (buvęs Čiuožyklos šiaurinis) įėjimas)', 'lat': '54.710726000000', 'lng': '25.261528000000', 'type': 'co'},{'name': 'Parko g. 34A (N. Vilnia), Vilnius', 'description': 'Prekybos centras "IKI"', 'lat': '54.685568000000', 'lng': '25.425949000000', 'type': 'co'},{'name': 'Pilies g. 36, Vilnius', 'description': 'Vilniaus Senamiesčio klientų aptarnavimo poskyris', 'lat': '54.681728000000', 'lng': '25.289313000000', 'type': 'co'},{'name': 'Saltoniškių g. 9, Vilnius', 'description': 'Prekybos centras "Panorama"', 'lat': '54.699704000000', 'lng': '25.259257000000', 'type': 'co'},{'name': 'Savanorių pr. 247, Vilnius', 'description': 'Prekybos centras "Maxima bazė"', 'lat': '54.657293000000', 'lng': '25.137727000000', 'type': 'co'},{'name': 'Sėlių g. 54, Vilnius', 'description': 'Prekybos centras "IKI"', 'lat': '54.698477000000', 'lng': '25.247601000000', 'type': 'co'},{'name': 'Skydo g. 30 (N. Vilnia), Vilnius', 'description': 'N. Vilnios klientų aptarnavimo poskyris', 'lat': '54.693008000000', 'lng': '25.412951000000', 'type': 'co'},{'name': 'Šeškinės g. 32, Vilnius', 'description': 'Prekybos centras "IKI"', 'lat': '54.714911000000', 'lng': '25.245340000000', 'type': 'co'},{'name': 'Ukmergės g. 282, Vilnius', 'description': 'Prekybos centras "Maxima XXX"', 'lat': '54.728068000000', 'lng': '25.240021000000', 'type': 'co'},{'name': 'Ukmergės g. 369, Vilnius', 'description': 'Prekybos centras "BIG"', 'lat': '54.740082000000', 'lng': '25.228312000000', 'type': 'co'},{'name': 'Ulonų g. 2, Vilnius', 'description': 'Šiaurinis klientų aptarnavimo poskyris (NORTH STAR verslo centras)', 'lat': '54.708062000000', 'lng': '25.290061000000', 'type': 'co'},{'name': 'Vilniaus g. 18, Vilnius', 'description': 'Vilniaus klientų aptarnavimo skyrius ', 'lat': '54.685251000000', 'lng': '25.279529000000', 'type': 'co'},{'name': 'Viršuliškių g. 40, Vilnius', 'description': 'Prekybos centras "Mada" ', 'lat': '54.710142000000', 'lng': '25.219835000000', 'type': 'co'},{'name': 'Žirmūnų g. 2, Vilnius', 'description': 'Prekybos centras "IKI" ', 'lat': '54.697704000000', 'lng': '25.299459000000', 'type': 'co'},{'name': 'Žirmūnų g. 64, Vilnius', 'description': 'Prekybos centras "RIMI Hypermarket"', 'lat': '54.712402000000', 'lng': '25.302020000000', 'type': 'co'},{'name': 'Veteranų g. 2, Visaginas', 'description': 'Prekybos centras "Domino"', 'lat': '55.597573000000', 'lng': '26.434256000000', 'type': 'co'},{'name': 'S. Dariaus ir S. Girėno g. 29/12, Zarasai', 'description': 'Parduotuvė "Cento"', 'lat': '55.734639000000', 'lng': '26.248035000000', 'type': 'co'},{'name': 'Vytauto g. 28, Zarasai', 'description': 'Prekybos centras "Norfa XL"', 'lat': '55.734180000000', 'lng': '26.257415000000', 'type': 'co'},{'name': 'Naujoji g. 7E / Ūdrijos g. 1, Alytus ', 'description': 'Putinų klientų aptarnavimo poskyris (PC "RIMI Hypermarket")', 'lat': '54.413136000000', 'lng': '24.017773000000', 'type': 'cocib'},{'name': 'Pulko g. 5, Alytus ', 'description': 'Alytaus klientų aptarnavimo skyrius', 'lat': '54.413136000000', 'lng': '24.017773000000', 'type': 'cocib'},{'name': 'A. Baranausko a. 1/2, Anykščiai ', 'description': 'Anykščių klientų aptarnavimo poskyris', 'lat': '55.526031000000', 'lng': '25.104010000000', 'type': 'cocib'},{'name': 'Kęstučio g. 10, Biržai ', 'description': 'Biržų klientų aptarnavimo poskyris', 'lat': '56.202288000000', 'lng': '24.754164000000', 'type': 'cocib'},{'name': 'M. K. Čiurlionio g. 50, Druskininkai ', 'description': 'Druskininkų klientų aptarnavimo poskyris (PC "Aidas")', 'lat': '54.016065000000', 'lng': '23.978212000000', 'type': 'cocib'},{'name': 'Draugystės g. 13, Elektrėnai ', 'description': 'Elektrėnų klientų aptarnavimo poskyris', 'lat': '54.785409000000', 'lng': '24.667633000000', 'type': 'cocib'},{'name': 'Klaipėdos g. 17, Gargždai ', 'description': 'Gargždų klientų aptarnavimo poskyris', 'lat': '55.710753000000', 'lng': '21.394981000000', 'type': 'cocib'},{'name': 'Žeimių g. 5, Jonava ', 'description': 'Jonavos klientų aptarnavimo poskyris', 'lat': '55.072879000000', 'lng': '24.277883000000', 'type': 'cocib'},{'name': 'Livonijos g. 9, Joniškis ', 'description': 'Joniškio klientų aptarnavimo poskyris', 'lat': '56.244256000000', 'lng': '23.617723000000', 'type': 'cocib'},{'name': 'S. Dariaus ir S. Girėno g. 81A, Jurbarkas ', 'description': 'Jurbarko klientų aptarnavimo poskyris', 'lat': '55.079252000000', 'lng': '22.776539000000', 'type': 'cocib'},{'name': 'Gedimino g. 16, Kaišiadorys ', 'description': 'Kaišiadorių klientų aptarnavimo poskyris', 'lat': '54.863420000000', 'lng': '24.459722000000', 'type': 'cocib'},{'name': 'Islandijos pl. 32, Kaunas ', 'description': 'Megos klientų aptarnavimo poskyris (Pramogų ir prekybos centras "Mega")', 'lat': '54.939852000000', 'lng': '23.890032000000', 'type': 'cocib'},{'name': 'Karaliaus Mindaugo pr. 49, Kaunas ', 'description': 'Kauno akropolio klientų aptarnavimo poskyris (Pramogų ir prekybos centras "Akropolis")', 'lat': '54.890686000000', 'lng': '23.918841000000', 'type': 'cocib'},{'name': 'Laisvės al. 86, Kaunas ', 'description': 'Kauno klientų aptarnavimo skyrius', 'lat': '54.897747000000', 'lng': '23.908544000000', 'type': 'cocib'},{'name': 'Pramonės pr. 29, Kaunas ', 'description': 'Draugystės klientų aptarnavimo poskyris (PC "Maxima XXX")', 'lat': '54.911830000000', 'lng': '23.983388000000', 'type': 'cocib'},{'name': 'Savanorių pr. 221, Kaunas ', 'description': 'Tvirtovės klientų aptarnavimo poskyris', 'lat': '54.909673000000', 'lng': '23.929910000000', 'type': 'cocib'},{'name': 'Savanorių pr. 255, Kaunas ', 'description': 'Žaliakalnio klientų aptarnavimo poskyris (PC "Hyper Maxima XXX")', 'lat': '54.915357000000', 'lng': '23.938919000000', 'type': 'cocib'},{'name': 'Savanorių pr. 363A, Kaunas ', 'description': 'Kalniečių klientų aptarnavimo skyrius', 'lat': '54.921916000000', 'lng': '23.957374000000', 'type': 'cocib'},{'name': 'Šarkuvos g. 1A, Kaunas ', 'description': 'Šarkuvos klientų aptarnavimo poskyris (Prekybos centras "Maxima XX")', 'lat': '54.933263000000', 'lng': '23.886211000000', 'type': 'cocib'},{'name': 'Veiverių g. 150B, Kaunas ', 'description': 'Aleksoto klientų aptarnavimo poskyris (PC "Maxima bazė")', 'lat': '54.864428000000', 'lng': '23.886388000000', 'type': 'cocib'},{'name': 'J. Basanavičiaus g. 55, Kėdainiai ', 'description': 'Kėdainių klientų aptarnavimo skyrius', 'lat': '55.287044000000', 'lng': '23.973882000000', 'type': 'cocib'},{'name': 'Laisvės gynėjų a. 16, Kelmė ', 'description': 'Kelmės klientų aptarnavimo poskyris', 'lat': '55.629813000000', 'lng': '22.934281000000', 'type': 'cocib'},{'name': 'Kuosų g. 20, Klaipėda ', 'description': 'Pilsoto klientų aptarnavimo poskyris (Dangoraižis "Pilsotas")', 'lat': '55.690743000000', 'lng': '21.146750000000', 'type': 'cocib'},{'name': 'Liepų g. 10, Klaipėda ', 'description': 'Klaipėdos klientų aptarnavimo skyrius', 'lat': '55.712185000000', 'lng': '21.133496000000', 'type': 'cocib'},{'name': 'Šilutės pl. 35, Klaipėda ', 'description': 'Baltijos klientų aptarnavimo poskyris (PC "Banginis")', 'lat': '55.692551000000', 'lng': '21.182187000000', 'type': 'cocib'},{'name': 'Taikos pr. 61, Klaipėda ', 'description': 'Taikos klientų aptarnavimo poskyris (Prekybos ir pramogų centras "Akropolis")', 'lat': '55.693409000000', 'lng': '21.154721000000', 'type': 'cocib'},{'name': 'Vilniaus g. 1, Kretinga ', 'description': 'Kretingos klientų aptarnavimo poskyris', 'lat': '55.891321000000', 'lng': '21.241340000000', 'type': 'cocib'},{'name': 'L. Stuokos-Gucevičiaus a. 7, Kupiškis ', 'description': 'Kupiškio klientų aptarnavimo poskyris', 'lat': '55.838832000000', 'lng': '24.973959000000', 'type': 'cocib'},{'name': 'J. Basanavičiaus g. 3, Kuršėnai ', 'description': 'Kuršėnų klientų aptarnavimo poskyris', 'lat': '56.003231000000', 'lng': '22.936752000000', 'type': 'cocib'},{'name': 'Kauno g. 5, Lazdijai ', 'description': 'Lazdijų klientų aptarnavimo poskyris', 'lat': '54.235483000000', 'lng': '23.515320000000', 'type': 'cocib'},{'name': 'Laisvės g. 16, Marijampolė ', 'description': 'Marijampolės klientų aptarnavimo skyrius', 'lat': '54.555034000000', 'lng': '23.351319000000', 'type': 'cocib'},{'name': 'Laisvės g. 9/4, Mažeikiai ', 'description': 'Mažeikių klientų aptarnavimo poskyris', 'lat': '56.311719000000', 'lng': '22.346613000000', 'type': 'cocib'},{'name': 'Vilniaus g. 47, Molėtai ', 'description': 'Molėtų klientų aptarnavimo poskyris', 'lat': '55.231602000000', 'lng': '25.418876000000', 'type': 'cocib'},{'name': 'Respublikos g. 1A, N. Akmenė ', 'description': 'N. Akmenės klientų aptarnavimo poskyris', 'lat': '56.321249000000', 'lng': '22.879756000000', 'type': 'cocib'},{'name': 'Prof. S. Ušinsko g. 24, Pakruojis ', 'description': 'Pakruojo klientų aptarnavimo poskyris', 'lat': '55.981890000000', 'lng': '23.838701000000', 'type': 'cocib'},{'name': 'Plytų g. 9, Palanga ', 'description': 'Palangos klientų aptarnavimo poskyris', 'lat': '55.915953000000', 'lng': '21.070450000000', 'type': 'cocib'},{'name': 'Respublikos g. 56, Panevėžys ', 'description': 'Panevėžio klientų aptarnavimo skyrius', 'lat': '55.733759000000', 'lng': '24.357987000000', 'type': 'cocib'},{'name': 'Savitiškio g. 61, Panevėžys ', 'description': 'Babilono klientų aptarnavimo poskyris (PC "Babilonas")', 'lat': '55.728734000000', 'lng': '24.315289000000', 'type': 'cocib'},{'name': 'Vilniaus g. 9, Pasvalys ', 'description': 'Pasvalio klientų aptarnavimo poskyris', 'lat': '56.060352000000', 'lng': '24.402362000000', 'type': 'cocib'},{'name': 'Telšių g. 5, Plungė ', 'description': 'Plungės klientų aptarnavimo poskyris', 'lat': '55.912474000000', 'lng': '21.848737000000', 'type': 'cocib'},{'name': 'Laisvės a. 4, Prienai ', 'description': 'Prienų klientų aptarnavimo poskyris', 'lat': '54.636122000000', 'lng': '23.947461000000', 'type': 'cocib'},{'name': 'S. Dariaus ir S. Girėno g. 30, Radviliškis ', 'description': 'Radviliškio klientų aptarnavimo poskyris', 'lat': '55.809798000000', 'lng': '23.537387000000', 'type': 'cocib'},{'name': 'Vytauto Didžiojo g. 21, Raseiniai ', 'description': 'Raseinių klientų aptarnavimo poskyris', 'lat': '55.382518000000', 'lng': '23.117983000000', 'type': 'cocib'},{'name': 'Kauno g. 7, Rokiškis ', 'description': 'Rokiškio klientų aptarnavimo poskyris', 'lat': '55.964305000000', 'lng': '25.590924000000', 'type': 'cocib'},{'name': 'Nepriklausomybės g. 4, Šakiai ', 'description': 'Šakių klientų aptarnavimo poskyris', 'lat': '54.779598000000', 'lng': '23.199407000000', 'type': 'cocib'},{'name': 'Architekto g. 3, Šalčininkai ', 'description': 'Šalčininkų klientų aptarnavimo poskyris', 'lat': '54.308331000000', 'lng': '25.385999000000', 'type': 'cocib'},{'name': 'Aido g. 8, Šiauliai ', 'description': 'Šiaulių akropolio klientų aptarnavimo poskyris', 'lat': '55.908435000000', 'lng': '23.260062000000', 'type': 'cocib'},{'name': 'Dvaro g. 96, Šiauliai ', 'description': 'Šiaulių klientų aptarnavimo skyrius', 'lat': '55.935592000000', 'lng': '23.316949000000', 'type': 'cocib'},{'name': 'J. Basanavičiaus g. 13, Šilalė ', 'description': 'Šilalės klientų aptarnavimo poskyris', 'lat': '55.490514000000', 'lng': '22.184922000000', 'type': 'cocib'},{'name': 'Lietuvininkų g. 37, Šilutė ', 'description': 'Šilutės klientų aptarnavimo poskyris', 'lat': '55.343299000000', 'lng': '21.471778000000', 'type': 'cocib'},{'name': 'Vilniaus g. 38, Širvintos ', 'description': 'Širvintų klientų aptarnavimo poskyris', 'lat': '55.043537000000', 'lng': '24.954728000000', 'type': 'cocib'},{'name': 'J. Basanavičiaus g. 15/16, Skuodas ', 'description': 'Skuodo klientų aptarnavimo poskyris', 'lat': '56.272699000000', 'lng': '21.530779000000', 'type': 'cocib'},{'name': 'Gedimino g. 5, Švenčionys ', 'description': 'Švenčionių klientų aptarnavimo poskyris', 'lat': '55.133884000000', 'lng': '26.162023000000', 'type': 'cocib'},{'name': 'S. Dariaus ir S. Girėno g. 7/81, Tauragė ', 'description': 'Tauragės klientų aptarnavimo skyrius', 'lat': '55.253441000000', 'lng': '22.286270000000', 'type': 'cocib'},{'name': 'Turgaus a. 17A, Telšiai ', 'description': 'Telšių klientų aptarnavimo skyrius', 'lat': '55.983827000000', 'lng': '22.252419000000', 'type': 'cocib'},{'name': 'Vytauto g. 55, Trakai ', 'description': 'Trakų klientų aptarnavimo poskyris', 'lat': '54.640309000000', 'lng': '24.932673000000', 'type': 'cocib'},{'name': 'Kauno g. 30, Ukmergė ', 'description': 'Ukmergės klientų aptarnavimo skyrius', 'lat': '55.247578000000', 'lng': '24.760024000000', 'type': 'cocib'},{'name': 'J.Basanavičiaus g. 61, Utena ', 'description': 'Utenos klientų aptarnavimo skyrius', 'lat': '55.498662000000', 'lng': '25.602774000000', 'type': 'cocib'},{'name': 'Vytauto g. 6, Varėna ', 'description': 'Varėnos klientų aptarnavimo poskyris', 'lat': '54.209930000000', 'lng': '24.571786000000', 'type': 'cocib'},{'name': 'Gedimino g. 16, Vilkaviškis ', 'description': 'Vilkaviškio klientų aptarnavimo poskyris', 'lat': '54.652377000000', 'lng': '23.038748000000', 'type': 'cocib'},{'name': 'Antakalnio g. 86, Vilnius ', 'description': 'Antakalnio klientų aptarnavimo poskyris', 'lat': '54.712851000000', 'lng': '25.314842000000', 'type': 'cocib'},{'name': 'Gedimino pr. 49A, Vilnius ', 'description': 'Gedimino klientų aptarnavimo poskyris', 'lat': '54.689901000000', 'lng': '25.264040000000', 'type': 'cocib'},{'name': 'J. Basanavičiaus g. 26, Vilnius ', 'description': 'Basanavičiaus klientų aptarnavimo skyrius', 'lat': '54.681821000000', 'lng': '25.268773000000', 'type': 'cocib'},{'name': 'Jeruzalės g. 4, Vilnius ', 'description': 'Jeruzalės klientų aptarnavimo poskyris (PC "RIMI")', 'lat': '54.740330000000', 'lng': '25.275199000000', 'type': 'cocib'},{'name': 'Laisvės pr. 28, Vilnius ', 'description': 'Karoliniškių klientų aptarnavimo poskyris (SODROS administracinis pastatas)', 'lat': '54.690586000000', 'lng': '25.213366000000', 'type': 'cocib'},{'name': 'Liepkalnio g. 112, Vilnius ', 'description': 'Liepkalnio klientų aptarnavimo poskyris (PC "Maxima xxx")', 'lat': '54.653584000000', 'lng': '25.303842000000', 'type': 'cocib'},{'name': 'Lvovo g. 25, Vilnius ', 'description': 'Konstitucijos klientų aptarnavimo skyrius (Vilniaus verslo uostas)', 'lat': '54.696405000000', 'lng': '25.278551000000', 'type': 'cocib'},{'name': 'Naugarduko g. 100, Vilnius ', 'description': 'Naujamiesčio klientų aptarnavimo poskyris (Migracijos depatramento pastatas)', 'lat': '54.668007000000', 'lng': '25.255582000000', 'type': 'cocib'},{'name': 'Ozo g. 25, Vilnius ', 'description': 'Vilniaus akropolio klientų aptarnavimo poskyris (Pramogų ir prekybos centras "Akropolis")', 'lat': '54.710726000000', 'lng': '25.261528000000', 'type': 'cocib'},{'name': 'Pilies g. 36, Vilnius ', 'description': 'Vilniaus Senamiesčio klientų aptarnavimo poskyris', 'lat': '54.681728000000', 'lng': '25.289313000000', 'type': 'cocib'},{'name': 'Saltoniškių g. 9, Vilnius ', 'description': 'Panoramos klientų aptarnavimo poskyris (Pramogų ir prekybos centras "Panorama")', 'lat': '54.699704000000', 'lng': '25.259257000000', 'type': 'cocib'},{'name': 'Savanorių pr. 247 , Vilnius ', 'description': 'Savanorių klientų aptarnavimo poskyris (PC "Maxima" bazė)', 'lat': '54.657293000000', 'lng': '25.137727000000', 'type': 'cocib'},{'name': 'Skydo g. 30, Vilnius ', 'description': 'N. Vilnios klientų aptarnavimo poskyris', 'lat': '54.693008000000', 'lng': '25.412951000000', 'type': 'cocib'},{'name': 'Ukmergės g. 369, Vilnius ', 'description': 'Bigo klientų aptarnavimo poskyris (PC "BIG")', 'lat': '54.740082000000', 'lng': '25.228312000000', 'type': 'cocib'},{'name': 'Ulonų g. 2, Vilnius ', 'description': 'Šiaurinis klientų aptarnavimo poskyris (NORTH STAR verslo centras)', 'lat': '54.708062000000', 'lng': '25.290061000000', 'type': 'cocib'},{'name': 'Vilniaus g. 18, Vilnius ', 'description': 'Vilniaus klientų aptarnavimo skyrius', 'lat': '54.685251000000', 'lng': '25.279529000000', 'type': 'cocib'},{'name': 'Žirmūnų g. 64, Vilnius ', 'description': 'Žirmūnų klientų aptarnavimo poskyris (PC "RIMI Hypermarket")', 'lat': '54.712402000000', 'lng': '25.302020000000', 'type': 'cocib'},{'name': 'Veteranų g. 2, Visaginas ', 'description': 'Visagino klientų aptarnavimo poskyris (PC "Domino")', 'lat': '55.597573000000', 'lng': '26.434256000000', 'type': 'cocib'},{'name': 'S. Dariaus ir S. Girėno g. 28A, Zarasai ', 'description': 'Zarasų klientų aptarnavimo poskyris', 'lat': '55.734301000000', 'lng': '26.248773000000', 'type': 'cocib'}]