[{'name': 'Didžiosios g. poskyris', 'type': 'bcico', 'address': 'Didžioji g. 18/2, LT-01128 Vilnius', 'lat': '54.6795582', 'lng': '25.2879792', 'description': 'I–V 8:30–16:30'},
{'name': 'Švitrigailos g. klientų aptarnavimo padalinys', 'type': 'bcico', 'address': 'Švitrigailos g. 11C, LT-03228 Vilnius', 'lat': '54.6754214', 'lng': '25.2681892', 'description': 'I–V 8:30–16:30'},
{'name': 'Vytauto g. poskyris', 'type': 'bcico', 'address': 'Vytauto g. 26/ Pušų g. 6, LT-08120 Vilnius', 'lat': '54.6918641', 'lng': '25.2549025', 'description': 'I–V 8:30–16:30'},
{'name': 'P. Lukšio g. klientų aptarnavimo padalinys', 'type': 'bcico', 'address': 'P. Lukšio g. 34, LT-08235 Vilnius', 'lat': '54.7124366', 'lng': '25.2967756', 'description': 'I–V 8:30–16:30'},
{'name': 'Mėnulio g. poskyris', 'type': 'bcico', 'address': 'Mėnulio g. 7, LT-04326 Vilnius', 'lat': '54.6987504', 'lng': '25.2154976', 'description': 'I–V 8:30–16:30'},
{'name': 'Geležinio Vilko g. klientų aptarnavimo padalinys', 'type': 'bcico', 'address': 'Geležinio vilko g. 6A, LT-03150 Vilnius', 'lat': '54.6711757', 'lng': '25.2381122', 'description': 'I–V 9:30–17:30'},
{'name': 'Saltoniškių g. poskyris**', 'type': 'bcico', 'address': 'Saltoniškių g. 9, LT-08105 Vilnius', 'lat': '54.6990686', 'lng': '25.2590648', 'description': 'I–V 10:00–19:00'},
{'name': 'A. Juozapavičiaus g. klientų aptarnavimo padalinys', 'type': 'bcico', 'address': 'A. Juozapavičiaus g. 6/2, LT-09310 Vilnius', 'lat': '54.6931240', 'lng': '25.2823993', 'description': 'I–V 8:30–16:30'},
{'name': 'V. Gerulaičio g. poskyris', 'type': 'bcico', 'address': 'V. Gerulaičio g. 1, LT-08200 Vilnius', 'lat': '54.7172688', 'lng': '25.2846852', 'description': 'I–V 9:30–17:30'},
{'name': 'Savanorių pr. 292B poskyris', 'type': 'bcico', 'address': 'Savanorių pr. 292B, LT-49473 Kaunas', 'lat': '54.9194702', 'lng': '23.9553491', 'description': 'I–V 8:30–16:30'},
{'name': 'Žemaičių pl. poskyris', 'type': 'bcico', 'address': 'Žemaičių pl. 37, LT-48256 Kaunas', 'lat': '54.9333852', 'lng': '23.8847874', 'description': 'I–V 9:30–17:30'},
{'name': 'Minijos g. poskyris', 'type': 'bcico', 'address': 'Minijos g. 90 /Dubysos g. 3, LT 93234 Klaipėda', 'lat': '55.6886601', 'lng': '21.1451216', 'description': 'I–V 8:30–16:30'},
{'name': 'Sausio 15-osios g. poskyris', 'type': 'bcico', 'address': 'Taikos pr. 14 /Sausio 15-osios g. 9, LT-91228 Klaipėda', 'lat': '55.7035832', 'lng': '21.1430272', 'description': 'I–V 9:00–17:00'},
{'name': 'Vilniaus g. poskyris', 'type': 'bcico', 'address': 'Vilniaus g. 124, LT-76291 Šiauliai', 'lat': '55.9296950', 'lng': '23.3179218', 'description': 'I–V 8:30–16:30'},
{'name': 'J. Urbšio g. poskyris', 'type': 'bcico', 'address': 'J. Urbšio g. 1, LT-35169 Panevėžys', 'lat': '55.7305907', 'lng': '24.3578707', 'description': 'I–V 8:30–16:30'},
{'name': 'Parduotuvė IKI', 'type': 'co', 'address': 'A. J. Povilaičio g. 20, Vilnius', 'lat': '54.6981458', 'lng': '25.2218893', 'description': 'Visą parą'},
{'name': 'Nordea klientų aptarnavimo padalinys', 'type': 'co', 'address': 'A. Juozapavičiaus g. 6/2, Vilnius', 'lat': '54.6931240', 'lng': '25.2823993', 'description': 'Visą parą'},
{'name': 'Parduotuvė IKI', 'type': 'co', 'address': 'Antakalnio g. 73, Vilnius', 'lat': '54.7144167', 'lng': '25.3158160', 'description': 'Visą parą'},
{'name': 'Parduotuvė IKI', 'type': 'co', 'address': 'Architektų g. 43/31, Vilnius', 'lat': '54.6748267', 'lng': '25.2010390', 'description': 'Visą parą'},
{'name': 'Prekybos centras MANDARINAS', 'type': 'co', 'address': 'Ateities g. 91, Vilnius', 'lat': '54.7323984', 'lng': '25.2460605', 'description': ''},
{'name': 'Parduotuvė IKI', 'type': 'co', 'address': 'Didlaukio g. 80A, Vilnius', 'lat': '54.7289176', 'lng': '25.2695419', 'description': 'Visą parą'},
{'name': 'Ūkio bankas', 'type': 'co', 'address': 'Didžioji g. 11, Vilnius', 'lat': '54.6801320', 'lng': '25.2883427', 'description': 'Visą parą'},
{'name': 'Nordea klientų aptarnavimo padalinys', 'type': 'co', 'address': 'Didžioji g. 18/2, Vilnius', 'lat': '54.7717325', 'lng': '25.2682196', 'description': 'Visą parą'},
{'name': 'Gariūnų turgus (prie įėjimo)', 'type': 'co', 'address': 'Gariūnų g. 68, Vilnius', 'lat': '54.6589898', 'lng': '25.1594661', 'description': 'Visą parą'},
{'name': 'Ūkio bankas', 'type': 'co', 'address': 'Gedimino pr. 1, Vilnius', 'lat': '54.6860314', 'lng': '25.2857340', 'description': 'Visą parą'},
{'name': 'Nordea klientų aptarnavimo padalinys', 'type': 'co', 'address': 'Gedimino pr. 2, Vilnius', 'lat': '54.6861780', 'lng': '25.2848581', 'description': 'Visą parą'},
{'name': '„Citadele“ bankas', 'type': 'co', 'address': 'Gedimino pr. 26, Vilnius', 'lat': '54.6877159', 'lng': '25.2762189', 'description': 'Visą parą'},
{'name': 'Prekybos centras GEDIMINO 9', 'type': 'co', 'address': 'Gedimino pr. 9, Vilnius', 'lat': '54.6867300', 'lng': '25.2819914', 'description': ''},
{'name': 'Vilniaus geležinkelio stotis', 'type': 'co', 'address': 'Geležinkelio g. 16, Vilnius', 'lat': '54.6712917', 'lng': '25.2858467', 'description': ''},
{'name': '„Citadele“ bankas', 'type': 'co', 'address': 'Geležinkelio g. 6, Vilnius', 'lat': '54.6701981', 'lng': '25.2825956', 'description': 'Visą parą'},
{'name': 'Parduotuvė MAXIMA X', 'type': 'co', 'address': 'Gelvonų g. 35, Vilnius', 'lat': '54.7177571', 'lng': '25.2587289', 'description': 'Visą parą'},
{'name': 'Parduotuvė MAXIMA X', 'type': 'co', 'address': 'Grybo g. 21, Vilnius', 'lat': '54.7046917', 'lng': '25.3161926', 'description': ''},
{'name': 'Parduotuvė IKI', 'type': 'co', 'address': 'J. Jasinskio g. 16, Vilnius', 'lat': '54.6884593', 'lng': '25.2609941', 'description': 'Visą parą'},
{'name': 'Parduotuvė IKI', 'type': 'co', 'address': 'Jonažolių g. 1, Vilnius', 'lat': '54.6680164', 'lng': '25.2099652', 'description': 'Visą parą'},
{'name': 'Justiniškių prekybos centras', 'type': 'co', 'address': 'Justiniškių g. 91, Vilnius', 'lat': '54.7179816', 'lng': '25.2231714', 'description': 'Visą parą'},
{'name': '„Citadele“ bankas', 'type': 'co', 'address': 'Kalinausko g. 13, Vilnius', 'lat': '54.6825787', 'lng': '25.2720074', 'description': 'Visą parą'},
{'name': 'Parduotuvė NORFA', 'type': 'co', 'address': 'Kalvarijų g. 206, Vilnius', 'lat': '54.7231126', 'lng': '25.2812610', 'description': 'Visą parą'},
{'name': 'Parduotuvė RIMI', 'type': 'co', 'address': 'Kalvarijų g. 296, Vilnius', 'lat': '54.7351879', 'lng': '25.2778552', 'description': 'Visą parą'},
{'name': 'Parduotuvė IKI', 'type': 'co', 'address': 'Kalvarijų g. 3, Vilnius', 'lat': '54.6930825', 'lng': '25.2807998', 'description': 'Visą parą'},
{'name': 'Vilniaus centrinė universalinė parduotuvė', 'type': 'co', 'address': 'Konstitucijos pr. 16, Vilnius', 'lat': '54.6957808', 'lng': '25.2763819', 'description': ''},
{'name': 'Prekybos centras EUROPA', 'type': 'co', 'address': 'Konstitucijos pr. 7, Vilnius', 'lat': '54.6956584', 'lng': '25.2772226', 'description': ''},
{'name': 'Parduotuvė NORFA', 'type': 'co', 'address': 'L. Asanavičiūtės g. 29, Vilnius', 'lat': '54.6940293', 'lng': '25.2157253', 'description': 'Visą parą'},
{'name': 'VĮ REGITRA', 'type': 'co', 'address': 'Lentvario g. 7, Vilnius', 'lat': '54.6464041', 'lng': '25.1448835', 'description': 'Visą parą'},
{'name': 'Ūkio bankas', 'type': 'co', 'address': 'Liejyklos g. 3, Vilnius', 'lat': '54.6829466', 'lng': '25.2802052', 'description': 'Visą parą'},
{'name': 'Parduotuvė MAXIMA X', 'type': 'co', 'address': 'Liepkalnio g. 112, Vilnius', 'lat': '54.6538210', 'lng': '25.3028544', 'description': ''},
{'name': 'Parduotuvė LEADER PRICE', 'type': 'co', 'address': 'Medeinos g. 10, Vilnius', 'lat': '54.7298934', 'lng': '25.2224615', 'description': 'Visą parą'},
{'name': 'Parduotuvė IKI', 'type': 'co', 'address': 'Mokslininkų g. 9A, Vilnius', 'lat': '54.7538174', 'lng': '25.2658683', 'description': ''},
{'name': 'Prekybos centras PAKELIUI Į MOLĖTUS', 'type': 'co', 'address': 'Molėtų g. 13, Vilnius', 'lat': '54.7661713', 'lng': '25.2717695', 'description': 'Visą parą'},
{'name': 'Parduotuvė NORFA', 'type': 'co', 'address': 'Molėtų pl. 47B, Vilnius', 'lat': '54.7726374', 'lng': '25.2718399', 'description': 'Visą parą'},
{'name': 'Pramogų ir laisvalaikio centras OZAS', 'type': 'co', 'address': 'Ozo g. 18, Vilnius', 'lat': '54.7129346', 'lng': '25.2737944', 'description': ''},
{'name': 'Prekybos centras AKROPOLIS, prie įėjimo į „Verslo centrą“', 'type': 'co', 'address': 'Ozo g. 25, Vilnius', 'lat': '54.7103550', 'lng': '25.2531764', 'description': 'Visą parą'},
{'name': 'Prekybos centras AKROPOLIS, Danske bankas', 'type': 'co', 'address': 'Ozo g. 25, Vilnius', 'lat': '54.7103550', 'lng': '25.2531764', 'description': ''},
{'name': 'Prekybos centras AKROPOLIS, Čiuožyklos pietinis įėjimas', 'type': 'co', 'address': 'Ozo g. 25, Vilnius', 'lat': '54.7103550', 'lng': '25.2531764', 'description': ''},
{'name': 'DOMUS galerija', 'type': 'co', 'address': 'P. Lukšio g. 32, Vilnius', 'lat': '54.7118371', 'lng': '25.2958420', 'description': 'Visą parą'},
{'name': 'Prekybos centras BANGINIS', 'type': 'co', 'address': 'P. Lukšio g. 34, Vilnius', 'lat': '54.7124366', 'lng': '25.2967756', 'description': ''},
{'name': 'PRAMOGŲ BANKAS', 'type': 'co', 'address': 'Pamėnkalnio g. 7/8, Vilnius', 'lat': '54.6858421', 'lng': '25.2748407', 'description': 'Visą parą'},
{'name': 'Parduotuvė CENTO', 'type': 'co', 'address': 'Parko g. 14, Vilnius', 'lat': '54.6887434', 'lng': '25.4153035', 'description': 'Visą parą'},
{'name': 'PILIES knygynas', 'type': 'co', 'address': 'Pilies g. 22, Vilnius', 'lat': '54.6825527', 'lng': '25.2891790', 'description': 'Visą parą'},
{'name': 'Šiaulių banko skyrius', 'type': 'co', 'address': 'Pilies g. 9, Vilnius', 'lat': '54.6837869', 'lng': '25.2894341', 'description': 'Visą parą'},
{'name': 'Prekybos centras PUPA', 'type': 'co', 'address': 'Priegliaus g. 1, Vilnius', 'lat': '54.7106053', 'lng': '25.1866912', 'description': 'Visą parą'},
{'name': 'Parduotuvė MAXIMA', 'type': 'co', 'address': 'Priegliaus g. 3, Vilnius', 'lat': '54.7116693', 'lng': '25.1866961', 'description': ''},
{'name': 'Oro uostas', 'type': 'co', 'address': 'Rodūnės kel. 2, Vilnius', 'lat': '54.6893865', 'lng': '25.2800243', 'description': 'Visą parą'},
{'name': 'Parduotuvė IKI', 'type': 'co', 'address': 'S. Stanevičiaus g. 23, Vilnius', 'lat': '54.7239127', 'lng': '25.2546635', 'description': 'Visą parą'},
{'name': 'Danske bankas', 'type': 'co', 'address': 'Saltoniškių g. 2, Vilnius', 'lat': '54.7012781', 'lng': '25.2616066', 'description': 'Visą parą'},
{'name': 'Pramogų ir laisvalaikio centras PANORAMA', 'type': 'co', 'address': 'Saltoniškių g. 9, Vilnius', 'lat': '54.6990686', 'lng': '25.2590648', 'description': ''},
{'name': 'Pramogų ir laisvalaikio centras PANORAMA UB', 'type': 'co', 'address': 'Saltoniškių g. 9, Vilnius', 'lat': '54.6990686', 'lng': '25.2590648', 'description': ''},
{'name': 'Parduotuvė MAXIMA XX', 'type': 'co', 'address': 'Sausio 13-osios g. 2, Vilnius', 'lat': '54.6932153', 'lng': '25.2220612', 'description': ''},
{'name': 'Prekybos centras „HyperRIMI“, prie parduotuvės JYSK', 'type': 'co', 'address': 'Savanorių pr. 16, Vilnius', 'lat': '54.6893865', 'lng': '25.2800243', 'description': 'Visą parą'},
{'name': 'Prekybos centras „HyperRIMI“', 'type': 'co', 'address': 'Savanorių pr. 16, Vilnius', 'lat': '54.6893865', 'lng': '25.2800243', 'description': ''},
{'name': 'NORFA bazė', 'type': 'co', 'address': 'Savanorių pr. 176, Vilnius', 'lat': '54.6893865', 'lng': '25.2800243', 'description': ''},
{'name': 'MAXIMOS bazė', 'type': 'co', 'address': 'Savanorių pr. 247, Vilnius', 'lat': '54.6893865', 'lng': '25.2800243', 'description': ''},
{'name': 'Kino centras FORUM CINEMAS', 'type': 'co', 'address': 'Savanorių pr. 7, Vilnius', 'lat': '54.6893865', 'lng': '25.2800243', 'description': 'Visą parą'},
{'name': 'Šiaulių banko skyrius', 'type': 'co', 'address': 'Sėlių g. 29 , Vilnius', 'lat': '54.6982659', 'lng': '25.2491943', 'description': 'Visą parą'},
{'name': 'Autobusų stotis', 'type': 'co', 'address': 'Sodų g. 22, Vilnius', 'lat': '54.6713360', 'lng': '25.2819344', 'description': ''},
{'name': 'Parduotuvė MAXIMA', 'type': 'co', 'address': 'Šaltkalvių g. 2, Vilnius', 'lat': '54.6615128', 'lng': '25.2728056', 'description': 'Visą parą'},
{'name': 'Parduotuvė IKI', 'type': 'co', 'address': 'Šeškinės g. 32, Vilnius', 'lat': '54.7149015', 'lng': '25.2453337', 'description': 'Visą parą'},
{'name': 'Parduotuvė NORFA', 'type': 'co', 'address': 'Šiaurės g. 37, Vilnius', 'lat': '54.7011776', 'lng': '25.4101703', 'description': 'Visą parą'},
{'name': 'Nordea klientų aptarnavimo padalinys', 'type': 'co', 'address': 'Švitrigailos g. 11C, Vilnius', 'lat': '54.6754214', 'lng': '25.2681892', 'description': 'Visą parą'},
{'name': 'Parduotuvė MAXIMA', 'type': 'co', 'address': 'Taikos g. 1, Vilnius', 'lat': '54.7170979', 'lng': '25.2288213', 'description': 'Visą parą'},
{'name': 'Parduotuvė MAXIMA', 'type': 'co', 'address': 'Tuskulėnų g. 66, Vilnius', 'lat': '54.7022523', 'lng': '25.2895171', 'description': 'Visą parą'},
{'name': 'Parduotuvė SENUKAI', 'type': 'co', 'address': 'Ukmergės g. 244, Vilnius', 'lat': '54.7239506', 'lng': '25.2424974', 'description': ''},
{'name': 'Prekybos centras BIG', 'type': 'co', 'address': 'Ukmergės g. 369, Vilnius', 'lat': '54.7393497', 'lng': '25.2276184', 'description': ''},
{'name': 'Parduotuvė IKI', 'type': 'co', 'address': 'Užupio g. 7, Vilnius', 'lat': '54.6803094', 'lng': '25.2942224', 'description': 'Visą parą'},
{'name': 'Parduotuvė NORFA', 'type': 'co', 'address': 'Verkių g. 29, Vilnius', 'lat': '54.7139633', 'lng': '25.2933845', 'description': ''},
{'name': 'Parduotuvė IKI', 'type': 'co', 'address': 'Vydūno g. 4, Vilnius', 'lat': '54.7068005', 'lng': '25.1880582', 'description': ''},
{'name': 'Parduotuvė MADA', 'type': 'co', 'address': 'Viršuliškiu g. 40, Vilnius', 'lat': '54.7078176', 'lng': '25.2270826', 'description': 'Visą parą'},
{'name': 'Nordea klientų aptarnavimo padalinys', 'type': 'co', 'address': 'Vytauto g. 26/ Pušų g. 6, Vilnius', 'lat': '54.6893865', 'lng': '25.2800243', 'description': 'Visą parą'},
{'name': 'Parduotuvė IKI', 'type': 'co', 'address': 'Žirmūnų g. 2, Vilnius', 'lat': '54.6977014', 'lng': '25.2994552', 'description': 'Visą parą'},
{'name': 'Prekybos centras „HyperRIMI“', 'type': 'co', 'address': 'Žirmūnų g. 64, Vilnius', 'lat': '54.7098861', 'lng': '25.3039334', 'description': ''},
{'name': 'Parduotuvė MAXIMA', 'type': 'co', 'address': 'Žirmūnų g. 89A, Vilnius', 'lat': '54.7195192', 'lng': '25.3036049', 'description': 'Visą parą'},
{'name': 'Parduotuvė ŠILAS', 'type': 'co', 'address': 'A. Juozapavičiaus pr. 33, Kaunas', 'lat': '54.8968721', 'lng': '23.8924264', 'description': 'Visą parą'},
{'name': 'Parduotuvė NORFA', 'type': 'co', 'address': 'A. Juozapavičiaus pr. 84, Kaunas', 'lat': '54.8968721', 'lng': '23.8924264', 'description': ''},
{'name': 'Parduotuvė ŽIEMGA', 'type': 'co', 'address': 'Baltų g. 81, Kaunas', 'lat': '54.9268955', 'lng': '23.8796662', 'description': ''},
{'name': 'Parduotuvė IKI', 'type': 'co', 'address': 'Didžioji g. 98, Kaunas', 'lat': '54.8549196', 'lng': '24.0139852', 'description': 'Visą parą'},
{'name': 'Parduotuvė „SuperNetto“', 'type': 'co', 'address': 'Islandijos pl. 209A, Kaunas', 'lat': '54.9349145', 'lng': '23.9491238', 'description': 'Visą parą'},
{'name': 'Prekybos centras MEGA', 'type': 'co', 'address': 'Islandijos pl. 32, RIMI įėjimas, Kaunas', 'lat': '54.8968721', 'lng': '23.8924264', 'description': ''},
{'name': 'Prekybos centras MEGA', 'type': 'co', 'address': 'Islandijos pl. 32, SENUKAI įėjimas, Kaunas', 'lat': '54.8968721', 'lng': '23.8924264', 'description': ''},
{'name': 'Prekybos centras MOLAS', 'type': 'co', 'address': 'K. Baršausko g. 66A, Kaunas', 'lat': '54.9009686', 'lng': '23.9681871', 'description': 'Visą parą'},
{'name': 'Kauno AKROPOLIS, Griunvaldo įėjimas', 'type': 'co', 'address': 'Karaliaus Mindaugo g. 49, Kaunas', 'lat': '54.8912981', 'lng': '23.9176132', 'description': ''},
{'name': 'Kauno AKROPOLIS, I a.', 'type': 'co', 'address': 'Karaliaus Mindaugo pr. 49, Kaunas', 'lat': '54.8968721', 'lng': '23.8924264', 'description': ''},
{'name': 'Kauno AKROPOLIS, II a.', 'type': 'co', 'address': 'Karaliaus Mindaugo pr. 49, Kaunas', 'lat': '54.8968721', 'lng': '23.8924264', 'description': ''},
{'name': 'Ūkio bankas', 'type': 'co', 'address': 'Kovo 11-osios g. 22, Kaunas', 'lat': '54.9056864', 'lng': '23.9745817', 'description': 'Visą parą'},
{'name': 'Parduotuvė NORFA', 'type': 'co', 'address': 'Kuršių g. 1, Kaunas', 'lat': '54.9357633', 'lng': '23.8849007', 'description': 'Visą parą'},
{'name': 'EUROVAISTINĖ', 'type': 'co', 'address': 'Laisvės al. 38, Kaunas', 'lat': '54.8968721', 'lng': '23.8924264', 'description': ''},
{'name': 'Nordea klientų aptarnavimo padalinys', 'type': 'co', 'address': 'Laisvės al. 53, Kaunas', 'lat': '54.8968721', 'lng': '23.8924264', 'description': 'Visą parą'},
{'name': 'Ūkio bankas', 'type': 'co', 'address': 'Laisvės al. 80, Kaunas', 'lat': '54.8968721', 'lng': '23.8924264', 'description': 'Visą parą'},
{'name': 'Kauno geležinkelio stotis', 'type': 'co', 'address': 'M. K. Čiurlionio g. 16, Kaunas', 'lat': '54.8866984', 'lng': '23.9308516', 'description': ''},
{'name': 'Parduotuvė NORFA', 'type': 'co', 'address': 'Naujakurių g. 31, Kaunas', 'lat': '54.9164971', 'lng': '23.8666233', 'description': ''},
{'name': 'Parduotuvė IKI', 'type': 'co', 'address': 'P. Lukšio g. 60, Kaunas', 'lat': '54.9256830', 'lng': '23.9481180', 'description': 'Visą parą'},
{'name': 'Prekybos miestelis URMAS, Ūkio bankas', 'type': 'co', 'address': 'Pramonės pr. 16, Kaunas', 'lat': '54.8968721', 'lng': '23.8924264', 'description': ''},
{'name': 'Parduotuvė MAXIMA XXX', 'type': 'co', 'address': 'Pramonės pr. 29, Kaunas', 'lat': '54.8968721', 'lng': '23.8924264', 'description': 'Visą parą'},
{'name': 'Parduotuvė NORFA', 'type': 'co', 'address': 'Raudondvario g. 127, Kaunas', 'lat': '54.9102665', 'lng': '23.8525334', 'description': ''},
{'name': 'Prekybos centras ERMITAŽAS', 'type': 'co', 'address': 'Raudondvario pl. 131 , Kaunas', 'lat': '54.9108868', 'lng': '23.8497158', 'description': ''},
{'name': 'Nautilus', 'type': 'co', 'address': 'Savanorių pr. 124, Kaunas', 'lat': '54.8968721', 'lng': '23.8924264', 'description': 'Visą parą'},
{'name': 'Parduotuvė „HyperMAXIMA“', 'type': 'co', 'address': 'Savanorių pr. 255, Kaunas', 'lat': '54.8968721', 'lng': '23.8924264', 'description': ''},
{'name': 'Nordea klientų aptarnavimo padalinys', 'type': 'co', 'address': 'Savanorių pr. 292B, Kaunas', 'lat': '54.8968721', 'lng': '23.8924264', 'description': 'Visą parą'},
{'name': 'Prekybos centras SAVAS', 'type': 'co', 'address': 'Savanorių pr. 346, Kaunas', 'lat': '54.8968721', 'lng': '23.8924264', 'description': ''},
{'name': 'Prekybos centras SAVAS', 'type': 'co', 'address': 'Savanorių pr. 346, Kaunas', 'lat': '54.8968721', 'lng': '23.8924264', 'description': ''},
{'name': 'Danske bankas', 'type': 'co', 'address': 'Savanorių pr. 363, Kaunas', 'lat': '54.8968721', 'lng': '23.8924264', 'description': 'Visą parą'},
{'name': '„Citadele“ bankas', 'type': 'co', 'address': 'Savanorių pr. 68, Kaunas', 'lat': '54.8968721', 'lng': '23.8924264', 'description': 'Visą parą'},
{'name': 'Parduotuvė MAXIMA XX', 'type': 'co', 'address': 'Šarkuvos g. 1A, Kaunas', 'lat': '54.9325795', 'lng': '23.8865256', 'description': ''},
{'name': 'Parduotuvė IKI', 'type': 'co', 'address': 'Šiaurės pr. 91, Kaunas', 'lat': '54.8968721', 'lng': '23.8924264', 'description': 'Visą parą'},
{'name': 'Danske bankas', 'type': 'co', 'address': 'Taikos pr. 145, Kaunas', 'lat': '54.8968721', 'lng': '23.8924264', 'description': 'Visą parą'},
{'name': 'Parduotuvė NORFA', 'type': 'co', 'address': 'Taikos pr. 81, Kaunas', 'lat': '54.8968721', 'lng': '23.8924264', 'description': 'Visą parą'},
{'name': 'Parduotuvė IKI', 'type': 'co', 'address': 'V. Krėvės pr. 57, Kaunas', 'lat': '54.8968721', 'lng': '23.8924264', 'description': 'Visą parą'},
{'name': 'Prekybos centras SAULĖTEKIS', 'type': 'co', 'address': 'V.Krėvės pr. 97, Kaunas', 'lat': '54.8968721', 'lng': '23.8924264', 'description': 'Visą parą'},
{'name': 'Ūkio bankas', 'type': 'co', 'address': 'Veiverių g. 134, Kaunas', 'lat': '54.8737882', 'lng': '23.8908554', 'description': 'Visą parą'},
{'name': 'MAXIMOS bazė', 'type': 'co', 'address': 'Veiverių g. 150B, Kaunas', 'lat': '54.8656412', 'lng': '23.8858896', 'description': ''},
{'name': 'Audinių parduotuvė', 'type': 'co', 'address': 'Vilniaus g. 36, Kaunas', 'lat': '54.8965033', 'lng': '23.8933691', 'description': 'Visą parą'},
{'name': 'Kauno oro uostas, Karmėlava', 'type': 'co', 'address': 'Vilniaus pl. 10, Karmėlava, Kaunas', 'lat': '54.9664631', 'lng': '24.0570364', 'description': 'Visą parą'},
{'name': 'Autobusų stotis', 'type': 'co', 'address': 'Vytauto pr. 24, Kaunas', 'lat': '54.8968721', 'lng': '23.8924264', 'description': 'Visą parą'},
{'name': 'Šiaulių banko skyrius', 'type': 'co', 'address': 'Vytauto pr. 56 , Kaunas', 'lat': '54.8968721', 'lng': '23.8924264', 'description': 'Visą parą'},
{'name': 'Parduotuvė MAXIMA X', 'type': 'co', 'address': 'Žiemgaliu g. 2, Kaunas', 'lat': '54.9231994', 'lng': '23.8800023', 'description': 'Visą parą'},
{'name': 'Parduotuvė IKI', 'type': 'co', 'address': 'Butkų Juzės g. 9, Klaipėda', 'lat': '55.7189104', 'lng': '21.1382513', 'description': 'Visą parą'},
{'name': '„Citadele“ bankas', 'type': 'co', 'address': 'Danės g. 15, Klaipėda', 'lat': '55.7099626', 'lng': '21.1311618', 'description': 'Visą parą'},
{'name': 'Muzikinis teatras', 'type': 'co', 'address': 'Danės g. 19, Klaipėda', 'lat': '55.7108482', 'lng': '21.1334006', 'description': 'Visą parą'},
{'name': 'Šiaulių banko skyrius', 'type': 'co', 'address': 'H. Manto g. 1, Klaipėda', 'lat': '55.7119945', 'lng': '21.1315470', 'description': 'Visą parą'},
{'name': 'Parduotuvė IKI', 'type': 'co', 'address': 'H. Manto g. 84, Klaipėda', 'lat': '55.7241029', 'lng': '21.1235370', 'description': 'Visą parą'},
{'name': 'Ūkio bankas', 'type': 'co', 'address': 'J. Janonio g. 6B, Klaipėda', 'lat': '55.7188190', 'lng': '21.1255722', 'description': 'Visą parą'},
{'name': 'Parduotuvė IKI', 'type': 'co', 'address': 'Laukininkų g. 19, Klaipėda', 'lat': '55.6637174', 'lng': '21.1918563', 'description': 'Visą parą'},
{'name': 'Parduotuvė MAXIMA XX', 'type': 'co', 'address': 'Liepojos g. 10, Klaipėda', 'lat': '55.7466198', 'lng': '21.1301082', 'description': 'Visą parą'},
{'name': 'Prekybos centras IKI', 'type': 'co', 'address': 'Mažvydo al. 7/11, Klaipėda', 'lat': '55.7148234', 'lng': '21.1337687', 'description': ''},
{'name': 'Danske bankas', 'type': 'co', 'address': 'Naujoji uosto g. 11A, Klaipėda', 'lat': '55.7129664', 'lng': '21.1241611', 'description': 'Visą parą'},
{'name': 'Prekybos centras BANGINIS', 'type': 'co', 'address': 'Šilutės pl. 35, Klaipėda', 'lat': '55.6909332', 'lng': '21.1796084', 'description': ''},
{'name': 'Parduotuvė RIMI', 'type': 'co', 'address': 'Šilutes pl. 62, Klaipėda', 'lat': '55.6792684', 'lng': '21.1863645', 'description': 'Visą parą'},
{'name': '„Citadele“ bankas', 'type': 'co', 'address': 'Taikos pr. 101, Klaipėda', 'lat': '55.6775060', 'lng': '21.1671105', 'description': 'Visą parą'},
{'name': 'Parduotuvė IKI', 'type': 'co', 'address': 'Taikos pr. 115, Klaipėda', 'lat': '55.6715597', 'lng': '21.1708747', 'description': 'Visą parą'},
{'name': 'Prekybos centras BIG', 'type': 'co', 'address': 'Taikos pr. 139, Klaipėda', 'lat': '55.6648672', 'lng': '21.1750500', 'description': ''},
{'name': 'Prekybos centras BIG', 'type': 'co', 'address': 'Taikos pr. 141, Klaipėda', 'lat': '55.6630980', 'lng': '21.1761426', 'description': ''},
{'name': 'Prekybos centras IKI', 'type': 'co', 'address': 'Taikos pr. 28, Klaipėda', 'lat': '55.7000027', 'lng': '21.1464458', 'description': 'Visą parą'},
{'name': '„Citadele“ bankas', 'type': 'co', 'address': 'Taikos pr. 4A, Klaipėda', 'lat': '55.7060980', 'lng': '21.1403184', 'description': 'Visą parą'},
{'name': 'Klaipėdos AKROPOLIS, Naujasis įėjimas', 'type': 'co', 'address': 'Taikos pr. 61, Klaipėda', 'lat': '55.6911461', 'lng': '21.1541115', 'description': ''},
{'name': 'Klaipėdos AKROPOLIS, prie įėjimo į parduotuvę „HyperMAXIMA“', 'type': 'co', 'address': 'Taikos pr. 61, Klaipėda', 'lat': '55.6911461', 'lng': '21.1541115', 'description': ''},
{'name': 'Prekybos centras ARENA', 'type': 'co', 'address': 'Taikos pr. 64, Klaipėda', 'lat': '55.6871607', 'lng': '21.1559066', 'description': ''},
{'name': 'PRAMOGŲ BANKAS', 'type': 'co', 'address': 'Turgaus g. 1, Klaipėda', 'lat': '55.7078098', 'lng': '21.1328794', 'description': 'Visą parą'},
{'name': 'Prekybos centras MĖTA', 'type': 'co', 'address': 'Vingio g. 6, Klaipėda', 'lat': '55.7147121', 'lng': '21.3069883', 'description': 'Visą parą'},
{'name': 'Parduotuvė MAXIMA X', 'type': 'co', 'address': 'Aido g. 18A, Šiauliai', 'lat': '55.9129109', 'lng': '23.2699929', 'description': 'Visą parą'},
{'name': 'Prekybos centras AKROPOLIS (II a.)', 'type': 'co', 'address': 'Aido g. 8, Šiauliai', 'lat': '55.9084333', 'lng': '23.2600586', 'description': ''},
{'name': 'Šiaulių AKROPOLIS, I a.', 'type': 'co', 'address': 'Aido g. 8, Šiauliai', 'lat': '55.9084333', 'lng': '23.2600586', 'description': ''},
{'name': 'Prekybos centras ARENA', 'type': 'co', 'address': 'Gegužių g. 30, Šiauliai', 'lat': '55.9070225', 'lng': '23.2593792', 'description': ''},
{'name': 'Šiaulių banko skyrius', 'type': 'co', 'address': 'Krymo g. 28D, Šiauliai', 'lat': '55.9069389', 'lng': '23.2663663', 'description': 'Visą parą'},
{'name': 'Prekybos centras LYRA', 'type': 'co', 'address': 'Lyros g. 13, Šiauliai', 'lat': '55.9140105', 'lng': '23.2603969', 'description': 'Visą parą'},
{'name': 'Šiaulių banko skyrius', 'type': 'co', 'address': 'Pramonės g. 15 , Šiauliai', 'lat': '55.9104257', 'lng': '23.3154417', 'description': 'Visą parą'},
{'name': 'Prekybos centras BRUKLINAS', 'type': 'co', 'address': 'Pramonės g. 6, Šiauliai', 'lat': '55.9137408', 'lng': '23.3046170', 'description': 'Visą parą'},
{'name': 'Prekybos ir pramogų centras SAULĖS MIESTAS', 'type': 'co', 'address': 'Tilžės g. 109, Šiauliai', 'lat': '55.9284956', 'lng': '23.3094668', 'description': 'Visą parą'},
{'name': 'Prekybos TILŽĖ', 'type': 'co', 'address': 'Tilžės g. 225, Šiauliai', 'lat': '55.9415477', 'lng': '23.3278310', 'description': ''},
{'name': 'Pramogų ir laisvalaikio centras TILŽĖ', 'type': 'co', 'address': 'Tilžės g. 225, Šiauliai', 'lat': '55.9415477', 'lng': '23.3278310', 'description': ''},
{'name': 'Šiaulių ligoninė', 'type': 'co', 'address': 'V.Kudirkos g. 99 , Šiauliai', 'lat': '55.9423327', 'lng': '23.3028358', 'description': ''},
{'name': '„Citadele“ bankas', 'type': 'co', 'address': 'Vilniaus g. 114A, Šiauliai', 'lat': '55.9283308', 'lng': '23.3202335', 'description': 'Visą parą'},
{'name': 'Nordea klientų aptarnavimo padalinys', 'type': 'co', 'address': 'Vilniaus g. 124, Šiauliai', 'lat': '55.9296950', 'lng': '23.3179218', 'description': 'Visą parą'},
{'name': 'Ūkio bankas', 'type': 'co', 'address': 'Vilniaus g. 130, Šiauliai', 'lat': '55.9302350', 'lng': '23.3170022', 'description': 'Visą parą'},
{'name': 'Parduotuvė MAXIMA XX', 'type': 'co', 'address': 'Vilniaus g. 137A, Šiauliai', 'lat': '55.9280982', 'lng': '23.3206159', 'description': 'Visą parą'},
{'name': 'Šiaulių banko skyrius', 'type': 'co', 'address': 'Vilniaus g. 193 , Šiauliai', 'lat': '55.9348984', 'lng': '23.3090528', 'description': 'Visą parą'},
{'name': 'Prekybos centras MUGĖ', 'type': 'co', 'address': 'Vilniaus g. 208, Šiauliai', 'lat': '55.9365086', 'lng': '23.3064350', 'description': 'Visą parą'},
{'name': 'Šiaulių banko skyrius', 'type': 'co', 'address': 'Vilniaus g. 255, Šiauliai', 'lat': '55.9362814', 'lng': '23.3067974', 'description': 'Visą parą'},
{'name': 'Šiaulių banko skyrius', 'type': 'co', 'address': 'Elektros g. 6 , Panevėžys', 'lat': '55.7289346', 'lng': '24.3666812', 'description': 'Visą parą'},
{'name': 'Nordea klientų aptarnavimo padalinys', 'type': 'co', 'address': 'J. Urbšio g. 1, Panevėžys', 'lat': '55.7305907', 'lng': '24.3578707', 'description': 'Visą parą'},
{'name': 'Prekybos centras BABILONAS II', 'type': 'co', 'address': 'Klaipėdos g. 143A, Panevėžys', 'lat': '55.7307657', 'lng': '24.3089178', 'description': ''},
{'name': 'Prekybos centras PROMO', 'type': 'co', 'address': 'Klaipėdos g. 153B , Panevėžys', 'lat': '55.7284511', 'lng': '24.2911343', 'description': ''},
{'name': 'Parduotuvė RIMI', 'type': 'co', 'address': 'Klaipėdos g. 82, Panevėžys', 'lat': '55.7281573', 'lng': '24.3418281', 'description': 'Visą parą'},
{'name': 'Parduotuvė MAXIMA XX', 'type': 'co', 'address': 'Klaipėdos g. 92, Panevėžys', 'lat': '55.7283100', 'lng': '24.3399312', 'description': ''},
{'name': 'Didžioji vaistinė', 'type': 'co', 'address': 'Laisvės a. 16, Panevėžys', 'lat': '55.7271007', 'lng': '24.3626312', 'description': 'Visą parą'},
{'name': 'Pramogų ir laisvalaikio centras ROŽYNAS', 'type': 'co', 'address': 'Piniavos skr. 10, Panevėžys', 'lat': '55.7579597', 'lng': '24.3701918', 'description': ''},
{'name': 'Prekybos centras BABILONAS', 'type': 'co', 'address': 'Savitiškio g. 61, Panevėžys', 'lat': '55.7074090', 'lng': '24.3139042', 'description': ''},
{'name': 'Parduotuvė IKI', 'type': 'co', 'address': 'Ugmergės g. 18, Panevėžys', 'lat': '55.7281586', 'lng': '24.3659353', 'description': 'Visą parą'},
{'name': 'Parduotuvė MAXIMA XX', 'type': 'co', 'address': 'Ukmergės g. 23, Panevėžys', 'lat': '55.7281408', 'lng': '24.3689073', 'description': 'Visą parą'},
{'name': 'Ūkio bankas', 'type': 'co', 'address': 'Ukmergės g. 26, Panevėžys', 'lat': '55.7281307', 'lng': '24.3698634', 'description': 'Visą parą'},
{'name': '„Citadele“ bankas', 'type': 'co', 'address': 'Vilniaus g. 7, Panevėžys', 'lat': '55.7260020', 'lng': '24.3639889', 'description': 'Visą parą'},
{'name': 'Parduotuvė IKI', 'type': 'co', 'address': 'A.Juozapavičiaus g. 13, Alytus', 'lat': '54.4031482', 'lng': '24.0598620', 'description': 'Visą parą'},
{'name': 'Parduotuvė IKI', 'type': 'co', 'address': 'Jaunimo g. 24, Alytus', 'lat': '54.3921753', 'lng': '24.0233511', 'description': 'Visą parą'},
{'name': 'Ūkio bankas', 'type': 'co', 'address': 'Jotvingių g. 7A, Alytus', 'lat': '54.3960400', 'lng': '24.0417178', 'description': 'Visą parą'},
{'name': 'Parduotuvė MAXIMA X', 'type': 'co', 'address': 'Naujoji g. 17K, Alytus', 'lat': '54.4131588', 'lng': '24.0116135', 'description': ''},
{'name': 'Parduotuvė IKI', 'type': 'co', 'address': 'Naujoji g. 2C, Alytus', 'lat': '54.3566512', 'lng': '23.4476494', 'description': ''},
{'name': 'Parduotuvė IRIS', 'type': 'co', 'address': 'Naujoji g. 50B, Alytus', 'lat': '54.4015200', 'lng': '24.0230253', 'description': 'Visą parą'},
{'name': 'Prekybos centras „HyperRIMI“', 'type': 'co', 'address': 'Naujoji g. 7E, Alytus', 'lat': '54.4062647', 'lng': '24.0191542', 'description': ''},
{'name': '„Citadele“ bankas', 'type': 'co', 'address': 'S. Dariaus ir S. Girėno g. 3/11, Alytus', 'lat': '54.3952673', 'lng': '24.0491514', 'description': 'Visą parą'},
{'name': 'Parduotuvė MAXIMA', 'type': 'co', 'address': 'Santaikos g. 34G, Alytus', 'lat': '54.3867522', 'lng': '24.0216929', 'description': ''},
{'name': 'Parduotuvė MAXIMA', 'type': 'co', 'address': 'A.Baranausko g. 4 , Anykščiai', 'lat': '55.5265770', 'lng': '25.0972880', 'description': ''},
{'name': 'Parduotuvė SENUKAI', 'type': 'co', 'address': 'S. Dariaus ir S. Girėno g. 1, Anykščiai', 'lat': '55.5750416', 'lng': '25.4986316', 'description': 'Visą parą'},
{'name': 'Ūkio bankas', 'type': 'co', 'address': 'Vytauto g. 117, Ariogala', 'lat': '55.2648725', 'lng': '23.4672278', 'description': 'Visą parą'},
{'name': 'Šiaulių banko skyrius', 'type': 'co', 'address': 'Maironio g. 40, Baisogala', 'lat': '55.6377652', 'lng': '23.7245256', 'description': 'Visą parą'},
{'name': 'Sanatorija „Versmė“', 'type': 'co', 'address': 'B. Sruogos g. 9 , Birštonas', 'lat': '54.6016280', 'lng': '24.0276544', 'description': 'Visą parą'},
{'name': 'Parduotuvė IKI', 'type': 'co', 'address': 'Vytauto g. 27, Biržai', 'lat': '56.2010027', 'lng': '24.7563841', 'description': ''},
{'name': 'Sanatorija „Eglė“', 'type': 'co', 'address': 'Eglės g. 1 , Druskininkai', 'lat': '54.0238572', 'lng': '24.0126999', 'description': ''},
{'name': 'Parduotuvė IKI', 'type': 'co', 'address': 'M. K. Čiurlionio g. 107, Druskininkai', 'lat': '54.0114788', 'lng': '23.9905103', 'description': ''},
{'name': 'Parduotuvė MAXIMA', 'type': 'co', 'address': 'M. K.Čiurlionio g. 50, Druskininkai', 'lat': '54.0154072', 'lng': '23.9780933', 'description': ''},
{'name': 'Parduotuvė MAXIMA XX', 'type': 'co', 'address': 'Rungos g. 4, 6, 8B, Elektrėnai', 'lat': '54.7854776', 'lng': '24.6585927', 'description': ''},
{'name': 'Parduotuvė IKI', 'type': 'co', 'address': 'Klaipėdos g. 60, Gargždai', 'lat': '55.7119963', 'lng': '21.3904566', 'description': 'Visą parą'},
{'name': 'Parduotuvė MAXIMA', 'type': 'co', 'address': 'Vytauto g. 105, Garliava', 'lat': '54.8259696', 'lng': '23.8730457', 'description': 'Visą parą'},
{'name': 'Parduotuvė IKI', 'type': 'co', 'address': 'Vytauto g. 67, Garliava', 'lat': '54.8227562', 'lng': '23.8730958', 'description': 'Visą parą'},
{'name': 'Parduotuvė MAXIMA', 'type': 'co', 'address': 'Taikos g. 11, Ignalina', 'lat': '55.3435747', 'lng': '26.1708382', 'description': ''},
{'name': 'Parduotuvė IKI', 'type': 'co', 'address': 'Chemikų g. 1, Jonava', 'lat': '55.0724352', 'lng': '24.2550478', 'description': 'Visą parą'},
{'name': 'Parduotuvė IKI', 'type': 'co', 'address': 'J. Basanavičiaus g. 6, Jonava', 'lat': '55.0739548', 'lng': '24.2809773', 'description': 'Visą parą'},
{'name': 'Šiaulių banko skyrius', 'type': 'co', 'address': 'Vasario 16-osios g. 1, Jonava', 'lat': '55.0731621', 'lng': '24.2769015', 'description': 'Visą parą'},
{'name': 'Prekybos centras ŽILVINAS', 'type': 'co', 'address': 'Livonijos g. 3, Joniškis', 'lat': '56.2421188', 'lng': '23.6164525', 'description': 'Visą parą'},
{'name': 'Ūkio bankas', 'type': 'co', 'address': 'S. Dariaus ir S. Girėno g. 37, Jurbarkas', 'lat': '55.0776432', 'lng': '22.7679300', 'description': 'Visą parą'},
{'name': 'Parduotuvė IKI', 'type': 'co', 'address': 'Gedimino g. 115A, Kaišiadorys', 'lat': '54.8556466', 'lng': '24.4437155', 'description': 'Visą parą'},
{'name': 'Šiaulių banko skyrius', 'type': 'co', 'address': 'Didžioji g. 44 , Kėdainiai', 'lat': '55.2878370', 'lng': '23.9765665', 'description': 'Visą parą'},
{'name': 'Ūkio bankas', 'type': 'co', 'address': 'J. Basanavičiaus g. 47C, Kėdainiai', 'lat': '55.2891304', 'lng': '23.9748760', 'description': 'Visą parą'},
{'name': 'Parduotuvė MAXIMA', 'type': 'co', 'address': 'J. Basanavičiaus g. 93, Kėdainiai', 'lat': '55.2769618', 'lng': '23.9586116', 'description': ''},
{'name': 'Parduotuvė SENUKAI', 'type': 'co', 'address': 'Rotušės a. 13, Kretinga', 'lat': '55.8887725', 'lng': '21.2407902', 'description': 'Visą parą'},
{'name': 'Parduotuvė MAXIMA XX', 'type': 'co', 'address': 'Gedimino g. 53N, Kupiškis', 'lat': '55.8353449', 'lng': '24.9787646', 'description': ''},
{'name': 'Parduotuvė NORFA', 'type': 'co', 'address': 'Vilniaus g. 2, Kuršėnai', 'lat': '56.0022088', 'lng': '22.9387345', 'description': 'Visą parą'},
{'name': 'Parduotuvė IKI', 'type': 'co', 'address': 'Seinų g. 4, Lazdijai', 'lat': '54.2332177', 'lng': '23.5156029', 'description': ''},
{'name': 'Parduotuvė NORFA', 'type': 'co', 'address': 'Klevų al. 4, Lentvaris', 'lat': '54.6455504', 'lng': '25.0522621', 'description': 'Visą parą'},
{'name': 'Ūkio bankas', 'type': 'co', 'address': 'Bažnyčios g. 28, Marijampolė', 'lat': '54.5551868', 'lng': '23.3485782', 'description': 'Visą parą'},
{'name': 'Parduotuvė MAXIMA XX', 'type': 'co', 'address': 'Bažnyčios g. 38, Marijampolė', 'lat': '54.5551557', 'lng': '23.3466619', 'description': ''},
{'name': 'Parduotuvė MAXIMA XXX', 'type': 'co', 'address': 'Kudirkos g. 3, Marijampolė', 'lat': '54.4819591', 'lng': '23.3564180', 'description': 'Visą parą'},
{'name': 'Prekybos centras „Hyper RIMI“', 'type': 'co', 'address': 'S. Dariaus ir S. Girėno g. 3A, Marijampolė', 'lat': '54.4544761', 'lng': '22.7081124', 'description': ''},
{'name': 'Parduotuvė IKI', 'type': 'co', 'address': 'Vilkaviškio g. 72, Marijampolė', 'lat': '54.5630051', 'lng': '23.3335954', 'description': 'Visą parą'},
{'name': 'Parduotuvė IKI', 'type': 'co', 'address': 'Vytauto g. 48A, Marijampolė', 'lat': '54.5461500', 'lng': '23.3471770', 'description': ''},
{'name': 'Pramogų ir laisvalaikio centras EIFELIS', 'type': 'co', 'address': 'Senkelio g. 14A, Mažeikiai', 'lat': '56.3006495', 'lng': '22.3549811', 'description': 'Visą parą'},
{'name': 'Parduotuvė MAXIMA XX', 'type': 'co', 'address': 'Žemaitijos g. 20, Mažeikiai', 'lat': '56.3053877', 'lng': '22.3318069', 'description': 'Visą parą'},
{'name': 'Parduotuvė MAXIMA XX', 'type': 'co', 'address': 'Sakalo g. 1, Molėtai', 'lat': '55.2220250', 'lng': '25.4336650', 'description': ''},
{'name': 'Parduotuvė MAXIMA', 'type': 'co', 'address': 'Naglių g. 29A, Neringa', 'lat': '55.3042355', 'lng': '21.0070869', 'description': 'Visą parą'},
{'name': 'Prekybos centras NORFA', 'type': 'co', 'address': 'Vilniaus g. 18, Pagėgiai', 'lat': '55.1327873', 'lng': '21.9124017', 'description': 'Visą parą'},
{'name': 'Šiaulių banko skyrius', 'type': 'co', 'address': 'Gintaro g. 46 , Palanga', 'lat': '55.9208653', 'lng': '21.0728507', 'description': 'Visą parą'},
{'name': 'Parduotuvė IKI', 'type': 'co', 'address': 'Kretingos g. 1, Palanga', 'lat': '55.9712649', 'lng': '21.0974228', 'description': 'Visą parą'},
{'name': 'Palangos Oro uostas', 'type': 'co', 'address': 'Liepojos pl. 1 , Palanga', 'lat': '55.9712649', 'lng': '21.0974228', 'description': ''},
{'name': 'Ūkio bankas', 'type': 'co', 'address': 'Taikos g. 68A, Palanga', 'lat': '55.9197360', 'lng': '21.0803002', 'description': 'Visą parą'},
{'name': 'Boulingo klubas „CACTUS“', 'type': 'co', 'address': 'Vytauto g. 98, Palanga', 'lat': '55.9187143', 'lng': '21.0669467', 'description': 'Visą parą'},
{'name': 'Parduotuvė MAXIMA', 'type': 'co', 'address': 'Vilniaus g. 48, Pasvalys', 'lat': '56.0571357', 'lng': '24.4067720', 'description': ''},
{'name': 'Parduotuvė MAXIMA XX', 'type': 'co', 'address': 'T. Vaižganto g. 81, Plungė', 'lat': '55.9046224', 'lng': '21.8325115', 'description': ''},
{'name': 'Šiaulių banko skyrius', 'type': 'co', 'address': 'Telšių g. 1/2, Plungė', 'lat': '55.9605678', 'lng': '22.1725762', 'description': 'Visą parą'},
{'name': 'Šiaulių banko skyrius', 'type': 'co', 'address': 'Ausros a. 1 , Radviliškis', 'lat': '55.8071612', 'lng': '23.5391485', 'description': 'Visą parą'},
{'name': 'Parduotuvė IKI', 'type': 'co', 'address': 'Gedimino g. 31B, Radviliškis', 'lat': '55.8128854', 'lng': '23.5483031', 'description': 'Visą parą'},
{'name': 'Ūkio bankas', 'type': 'co', 'address': 'Dubysos g. 2, Raseiniai', 'lat': '55.3802534', 'lng': '23.1152948', 'description': 'Visą parą'},
{'name': 'Parduotuvė MAXIMA', 'type': 'co', 'address': 'Respublikos g. 111 , Rokiškis', 'lat': '55.9525764', 'lng': '25.5890362', 'description': 'Visą parą'},
{'name': 'Prekybos centras NORFA', 'type': 'co', 'address': 'Cintjoniškių g. 13, Šilutė', 'lat': '55.3492529', 'lng': '21.4733979', 'description': 'Visą parą'},
{'name': 'Ūkio bankas', 'type': 'co', 'address': 'Lietuvininkų g. 45, Šilutė', 'lat': '55.3435709', 'lng': '21.4744980', 'description': 'Visą parą'},
{'name': 'Parduotuvė IKI', 'type': 'co', 'address': 'Gedimino g. 21A , Tauragė', 'lat': '55.2526353', 'lng': '22.2993962', 'description': 'Visą parą'},
{'name': 'Ūkio bankas', 'type': 'co', 'address': 'S. Dariaus ir S. Girėno g. 12, Tauragė', 'lat': '55.2520206', 'lng': '22.2846258', 'description': 'Visą parą'},
{'name': 'Parduotuvė SENUKAI', 'type': 'co', 'address': 'Luokės g. 76, Telšiai', 'lat': '55.9758992', 'lng': '22.2682123', 'description': 'Visą parą'},
{'name': 'Prekybos centras TULPĖ', 'type': 'co', 'address': 'Turgaus g. 4, Telšiai', 'lat': '55.7401626', 'lng': '22.3783589', 'description': 'Visą parą'},
{'name': 'Parduotuvė IKI', 'type': 'co', 'address': 'Aukštadvario g. 28A, Trakai', 'lat': '54.6310628', 'lng': '24.9258727', 'description': ''},
{'name': 'Parduotuvė SENUKAI', 'type': 'co', 'address': 'Vytauto g. 60, Trakai', 'lat': '54.6376529', 'lng': '24.9340790', 'description': 'Visą parą'},
{'name': 'Prekybos ir laisvalaikio centras EIFELIS', 'type': 'co', 'address': 'Dukstynos km., Ukmergės raj., Ukmergė', 'lat': '55.2596778', 'lng': '24.7937393', 'description': 'Visą parą'},
{'name': 'Ūkio bankas', 'type': 'co', 'address': 'Kęstučio a. 7, Ukmergė', 'lat': '55.2503973', 'lng': '24.7660062', 'description': ''},
{'name': 'Šiaulių banko skyrius', 'type': 'co', 'address': 'Vytauto g. 4/19, Ukmergė', 'lat': '55.2508385', 'lng': '24.7656328', 'description': 'Visą parą'},
{'name': 'Prekybos centras NORFA', 'type': 'co', 'address': 'J. Basanavičiaus g. 127, Utena', 'lat': '55.5050006', 'lng': '25.6242279', 'description': 'Visą parą'},
{'name': 'Parduotuvė IKI', 'type': 'co', 'address': 'J. Basanavičiaus g. 53, Utena', 'lat': '55.4982073', 'lng': '25.6005598', 'description': 'Visą parą'},
{'name': 'Šiaulių banko skyrius', 'type': 'co', 'address': 'Utenio a. 22, Utena', 'lat': '55.4866111', 'lng': '25.6013166', 'description': 'Visą parą'},
{'name': 'Šiaulių banko skyrius', 'type': 'co', 'address': 'Laisvės g. 1, Varėna', 'lat': '54.2100189', 'lng': '24.5716150', 'description': 'Visą parą'},
{'name': 'Parduotuvė IKI', 'type': 'co', 'address': 'Vytauto g. 18, Varėna', 'lat': '54.2119472', 'lng': '24.5696705', 'description': ''},
{'name': 'Ūkio banko skyrius', 'type': 'co', 'address': 'Kęstučio g. 2A , Vilkaviškis', 'lat': '54.6508088', 'lng': '23.0362683', 'description': 'Visą parą'},
{'name': 'Ūkio bankas', 'type': 'co', 'address': 'Parko g. 14, Visaginas', 'lat': '55.5976232', 'lng': '26.4229822', 'description': 'Visą parą'},
{'name': 'Prekybos centras DOMINO', 'type': 'co', 'address': 'Veteranų g. 2 , Visaginas', 'lat': '55.5975689', 'lng': '26.4342534', 'description': ''},
{'name': 'Prekybos centras MAXIMA', 'type': 'co', 'address': 'Bukonto g. 7, Zarasai', 'lat': '55.7295127', 'lng': '26.2440945', 'description': 'Visą parą'}]